[
  {
    "id": "C0001",
    "name": "Huỳnh Văn Nga",
    "address": "806 Cách Mạng Tháng Tám, Huyện Châu Đức, Bà Rịa - Vũng Tàu",
    "phone": "0992130929",
    "latitude": 10.601866,
    "longitude": 107.114119
  },
  {
    "id": "C0002",
    "name": "Huỳnh Văn Linh",
    "address": "698 Lý Thường Kiệt, Huyện Xuyên Mộc, Bà Rịa - Vũng Tàu",
    "phone": "0927203213",
    "latitude": 10.566355,
    "longitude": 107.095601
  },
  {
    "id": "C0003",
    "name": "Huỳnh Văn Linh",
    "address": "1235 Lý Thường Kiệt, Huyện Châu Đức, Bà Rịa - Vũng Tàu",
    "phone": "0929116940",
    "latitude": 10.52737,
    "longitude": 107.136077
  },
  {
    "id": "C0004",
    "name": "Lê Văn Dung",
    "address": "504 Quang Trung, TP. Vũng Tàu, Bà Rịa - Vũng Tàu",
    "phone": "0982709911",
    "latitude": 10.482431,
    "longitude": 107.114102
  },
  {
    "id": "C0005",
    "name": "Hoàng Văn An",
    "address": "875 Phan Bội Châu, Huyện Xuyên Mộc, Bà Rịa - Vũng Tàu",
    "phone": "0939651470",
    "latitude": 10.615811,
    "longitude": 106.929674
  },
  {
    "id": "C0006",
    "name": "Hoàng Văn Cường",
    "address": "278 Hùng Vương, TP. Vũng Tàu, Bà Rịa - Vũng Tàu",
    "phone": "0950207842",
    "latitude": 10.499163,
    "longitude": 107.131068
  },
  {
    "id": "C0007",
    "name": "Huỳnh Văn Linh",
    "address": "177 Nguyễn Huệ, Thị xã Phú Mỹ, Bà Rịa - Vũng Tàu",
    "phone": "0985576576",
    "latitude": 10.637751,
    "longitude": 106.944525
  },
  {
    "id": "C0008",
    "name": "Đỗ Văn Phương",
    "address": "733 Lý Thường Kiệt, Huyện Châu Đức, Bà Rịa - Vũng Tàu",
    "phone": "0987437260",
    "latitude": 10.702947,
    "longitude": 107.07169
  },
  {
    "id": "C0009",
    "name": "Đặng Văn Dung",
    "address": "431 Điện Biên Phủ, TP. Bà Rịa, Bà Rịa - Vũng Tàu",
    "phone": "0974177660",
    "latitude": 10.648077,
    "longitude": 107.128784
  },
  {
    "id": "C0010",
    "name": "Trần Văn Nga",
    "address": "1190 Điện Biên Phủ, Thị xã Phú Mỹ, Bà Rịa - Vũng Tàu",
    "phone": "0938093306",
    "latitude": 10.604185,
    "longitude": 106.927978
  },
  {
    "id": "C0011",
    "name": "Đỗ Văn Linh",
    "address": "1404 Lê Lợi, Huyện Xuyên Mộc, Bà Rịa - Vũng Tàu",
    "phone": "0982656224",
    "latitude": 10.520321,
    "longitude": 107.354613
  },
  {
    "id": "C0012",
    "name": "Nguyễn Văn An",
    "address": "1295 Lê Lợi, Thị xã Phú Mỹ, Bà Rịa - Vũng Tàu",
    "phone": "0995886542",
    "latitude": 10.622225,
    "longitude": 107.076232
  },
  {
    "id": "C0013",
    "name": "Phạm Văn Phương",
    "address": "1392 Quang Trung, Huyện Xuyên Mộc, Bà Rịa - Vũng Tàu",
    "phone": "0945176010",
    "latitude": 10.552034,
    "longitude": 107.10171
  },
  {
    "id": "C0014",
    "name": "Võ Văn Quân",
    "address": "1219 Phan Bội Châu, TP. Bà Rịa, Bà Rịa - Vũng Tàu",
    "phone": "0929779908",
    "latitude": 10.601618,
    "longitude": 106.9304
  },
  {
    "id": "C0015",
    "name": "Bùi Văn Nga",
    "address": "1305 Phan Bội Châu, TP. Vũng Tàu, Bà Rịa - Vũng Tàu",
    "phone": "0972864012",
    "latitude": 10.370949,
    "longitude": 107.092843
  },
  {
    "id": "C0016",
    "name": "Bùi Văn Linh",
    "address": "1483 Cách Mạng Tháng Tám, Thị xã Phú Mỹ, Bà Rịa - Vũng Tàu",
    "phone": "0927624683",
    "latitude": 10.734835,
    "longitude": 106.960191
  },
  {
    "id": "C0017",
    "name": "Võ Văn Minh",
    "address": "1031 Phan Bội Châu, Thị xã Phú Mỹ, Bà Rịa - Vũng Tàu",
    "phone": "0997127734",
    "latitude": 10.619959,
    "longitude": 107.073379
  },
  {
    "id": "C0018",
    "name": "Trần Văn Minh",
    "address": "284 30/4, Huyện Châu Đức, Bà Rịa - Vũng Tàu",
    "phone": "0947402551",
    "latitude": 10.576244,
    "longitude": 106.963573
  },
  {
    "id": "C0019",
    "name": "Bùi Văn An",
    "address": "952 30/4, Huyện Xuyên Mộc, Bà Rịa - Vũng Tàu",
    "phone": "0995825360",
    "latitude": 10.582967,
    "longitude": 107.143427
  },
  {
    "id": "C0020",
    "name": "Trần Văn Cường",
    "address": "397 Trần Hưng Đạo, Thị xã Phú Mỹ, Bà Rịa - Vũng Tàu",
    "phone": "0922811133",
    "latitude": 10.531956,
    "longitude": 107.153304
  },
  {
    "id": "C0021",
    "name": "Phạm Văn An",
    "address": "487 Lê Lợi, Thị xã Phú Mỹ, Bà Rịa - Vũng Tàu",
    "phone": "0954058462",
    "latitude": 10.763101,
    "longitude": 107.344474
  },
  {
    "id": "C0022",
    "name": "Đặng Văn Phương",
    "address": "122 Phan Bội Châu, Thị xã Phú Mỹ, Bà Rịa - Vũng Tàu",
    "phone": "0958566461",
    "latitude": 10.64998,
    "longitude": 107.028769
  },
  {
    "id": "C0023",
    "name": "Trần Văn Hải",
    "address": "543 Trần Hưng Đạo, TP. Vũng Tàu, Bà Rịa - Vũng Tàu",
    "phone": "0963989922",
    "latitude": 10.700977,
    "longitude": 107.097096
  },
  {
    "id": "C0024",
    "name": "Huỳnh Văn Hải",
    "address": "892 Điện Biên Phủ, Huyện Châu Đức, Bà Rịa - Vũng Tàu",
    "phone": "0986093360",
    "latitude": 10.696235,
    "longitude": 106.994188
  },
  {
    "id": "C0025",
    "name": "Võ Văn Hải",
    "address": "735 30/4, Huyện Xuyên Mộc, Bà Rịa - Vũng Tàu",
    "phone": "0965598592",
    "latitude": 10.440094,
    "longitude": 107.097115
  },
  {
    "id": "C0026",
    "name": "Huỳnh Văn Linh",
    "address": "586 Hùng Vương, TP. Bà Rịa, Bà Rịa - Vũng Tàu",
    "phone": "0971066059",
    "latitude": 10.646157,
    "longitude": 107.160406
  },
  {
    "id": "C0027",
    "name": "Trần Văn Bình",
    "address": "716 Nguyễn Huệ, TP. Bà Rịa, Bà Rịa - Vũng Tàu",
    "phone": "0948427604",
    "latitude": 10.702417,
    "longitude": 107.05027
  },
  {
    "id": "C0028",
    "name": "Trần Văn Bình",
    "address": "1055 Quang Trung, Thị xã Phú Mỹ, Bà Rịa - Vũng Tàu",
    "phone": "0912421550",
    "latitude": 10.572433,
    "longitude": 106.988301
  },
  {
    "id": "C0029",
    "name": "Phạm Văn Nga",
    "address": "1348 Trần Hưng Đạo, Thị xã Phú Mỹ, Bà Rịa - Vũng Tàu",
    "phone": "0969699180",
    "latitude": 10.604259,
    "longitude": 106.958805
  },
  {
    "id": "C0030",
    "name": "Lê Văn Cường",
    "address": "1327 30/4, Thị xã Phú Mỹ, Bà Rịa - Vũng Tàu",
    "phone": "0953816813",
    "latitude": 10.605314,
    "longitude": 106.934988
  },
  {
    "id": "C0031",
    "name": "Trần Văn Linh",
    "address": "1138 30/4, TP. Bà Rịa, Bà Rịa - Vũng Tàu",
    "phone": "0971127993",
    "latitude": 10.596204,
    "longitude": 106.926404
  },
  {
    "id": "C0032",
    "name": "Lê Văn Bình",
    "address": "772 30/4, Huyện Châu Đức, Bà Rịa - Vũng Tàu",
    "phone": "0926841200",
    "latitude": 10.57464,
    "longitude": 107.147188
  },
  {
    "id": "C0033",
    "name": "Đặng Văn Minh",
    "address": "999 Lý Thường Kiệt, Huyện Châu Đức, Bà Rịa - Vũng Tàu",
    "phone": "0929349705",
    "latitude": 10.714324,
    "longitude": 107.060731
  },
  {
    "id": "C0034",
    "name": "Hoàng Văn Minh",
    "address": "103 Phan Bội Châu, TP. Bà Rịa, Bà Rịa - Vũng Tàu",
    "phone": "0975694306",
    "latitude": 10.609739,
    "longitude": 107.159868
  },
  {
    "id": "C0035",
    "name": "Huỳnh Văn An",
    "address": "439 Lê Lợi, Huyện Xuyên Mộc, Bà Rịa - Vũng Tàu",
    "phone": "0923467276",
    "latitude": 10.581403,
    "longitude": 107.172299
  },
  {
    "id": "C0036",
    "name": "Phạm Văn An",
    "address": "1398 Phan Bội Châu, TP. Bà Rịa, Bà Rịa - Vũng Tàu",
    "phone": "0940612788",
    "latitude": 10.797860,
    "longitude": 107.551892
  },
  {
    "id": "C0037",
    "name": "Trần Văn Phương",
    "address": "8 Hùng Vương, TP. Bà Rịa, Bà Rịa - Vũng Tàu",
    "phone": "0961263448",
    "latitude": 10.696691,
    "longitude": 106.9346
  },
  {
    "id": "C0038",
    "name": "Lê Văn Phương",
    "address": "292 Lê Lợi, Thị xã Phú Mỹ, Bà Rịa - Vũng Tàu",
    "phone": "0958768379",
    "latitude": 10.584008,
    "longitude": 107.026782
  },
  {
    "id": "C0039",
    "name": "Trần Văn Hải",
    "address": "17 30/4, TP. Vũng Tàu, Bà Rịa - Vũng Tàu",
    "phone": "0985685829",
    "latitude": 10.704762,
    "longitude": 106.976113
  },
  {
    "id": "C0040",
    "name": "Trần Văn Quân",
    "address": "122 Nguyễn Huệ, Thị xã Phú Mỹ, Bà Rịa - Vũng Tàu",
    "phone": "0947559496",
    "latitude": 10.648191,
    "longitude": 106.952969
  },
  {
    "id": "C0041",
    "name": "Huỳnh Văn Quân",
    "address": "374 Điện Biên Phủ, Huyện Xuyên Mộc, Bà Rịa - Vũng Tàu",
    "phone": "0947010803",
    "latitude": 10.594214,
    "longitude": 107.094118
  },
  {
    "id": "C0042",
    "name": "Lê Văn Hải",
    "address": "1292 Nguyễn Huệ, Thị xã Phú Mỹ, Bà Rịa - Vũng Tàu",
    "phone": "0956110155",
    "latitude": 10.726146,
    "longitude": 107.103339
  },
  {
    "id": "C0043",
    "name": "Nguyễn Văn An",
    "address": "569 Phan Bội Châu, TP. Bà Rịa, Bà Rịa - Vũng Tàu",
    "phone": "0972651336",
    "latitude": 10.465414,
    "longitude": 107.073801
  },
  {
    "id": "C0044",
    "name": "Lê Văn Quân",
    "address": "1407 Điện Biên Phủ, TP. Vũng Tàu, Bà Rịa - Vũng Tàu",
    "phone": "0955452923",
    "latitude": 10.737556,
    "longitude": 107.114813
  },
  {
    "id": "C0045",
    "name": "Huỳnh Văn Bình",
    "address": "1137 Lý Thường Kiệt, Huyện Xuyên Mộc, Bà Rịa - Vũng Tàu",
    "phone": "0992127249",
    "latitude": 10.658476,
    "longitude": 107.16095
  },
  {
    "id": "C0046",
    "name": "Đặng Văn Cường",
    "address": "1190 Cách Mạng Tháng Tám, Thị xã Phú Mỹ, Bà Rịa - Vũng Tàu",
    "phone": "0927437286",
"latitude": 10.594625, "longitude": 107.435727
  },
  {
    "id": "C0047",
    "name": "Nguyễn Văn Quân",
    "address": "361 Trần Hưng Đạo, TP. Vũng Tàu, Bà Rịa - Vũng Tàu",
    "phone": "0916310783",
    "latitude": 10.695045,
    "longitude": 107.131631
  },
  {
    "id": "C0048",
    "name": "Bùi Văn Cường",
    "address": "384 30/4, Huyện Xuyên Mộc, Bà Rịa - Vũng Tàu",
    "phone": "0936152546",
    "latitude": 10.726558,
    "longitude": 107.041356
  },
  {
    "id": "C0049",
    "name": "Huỳnh Văn An",
    "address": "1499 Trần Hưng Đạo, Huyện Xuyên Mộc, Bà Rịa - Vũng Tàu",
    "phone": "0997267886",
    "latitude": 10.735436,
    "longitude": 107.007577
  },
  {
    "id": "C0050",
    "name": "Huỳnh Văn Dung",
    "address": "744 Trần Hưng Đạo, Huyện Châu Đức, Bà Rịa - Vũng Tàu",
    "phone": "0942624984",
    "latitude": 10.597269,
    "longitude": 107.012251
  },
  {
    "id": "C0051",
    "name": "Đỗ Văn Nga",
    "address": "1134 Trần Hưng Đạo, Huyện Châu Đức, Bà Rịa - Vũng Tàu",
    "phone": "0950028948",
    "latitude": 10.57588,
    "longitude": 107.129155
  },
  {
    "id": "C0052",
    "name": "Bùi Văn Linh",
    "address": "1155 Hùng Vương, TP. Vũng Tàu, Bà Rịa - Vũng Tàu",
    "phone": "0927113895",
    "latitude": 10.661859,
    "longitude": 106.955342
  },
  {
    "id": "C0053",
    "name": "Hoàng Văn Linh",
    "address": "559 Phan Bội Châu, Huyện Xuyên Mộc, Bà Rịa - Vũng Tàu",
    "phone": "0914662617",
    "latitude": 10.977522,
    "longitude": 107.802541
  },
  {
    "id": "C0054",
    "name": "Nguyễn Văn Quân",
    "address": "901 Lê Lợi, Huyện Xuyên Mộc, Bà Rịa - Vũng Tàu",
    "phone": "0939693416",
    "latitude": 10.60219,
    "longitude": 106.989709
  },
  {
    "id": "C0055",
    "name": "Huỳnh Văn Phương",
    "address": "67 Hùng Vương, Huyện Xuyên Mộc, Bà Rịa - Vũng Tàu",
    "phone": "0911580918",
    "latitude": 10.56691,
    "longitude": 106.992995
  },
  {
    "id": "C0056",
    "name": "Đặng Văn Quân",
    "address": "450 Lý Thường Kiệt, Huyện Xuyên Mộc, Bà Rịa - Vũng Tàu",
    "phone": "0972034308",
    "latitude": 10.547509,
    "longitude": 107.142773
  },
  {
    "id": "C0057",
    "name": "Huỳnh Văn Nga",
    "address": "766 Hùng Vương, TP. Vũng Tàu, Bà Rịa - Vũng Tàu",
    "phone": "0977563411",
    "latitude": 10.590339,
    "longitude": 107.001165
  },
  {
    "id": "C0058",
    "name": "Nguyễn Văn Linh",
    "address": "970 Hùng Vương, Huyện Xuyên Mộc, Bà Rịa - Vũng Tàu",
    "phone": "0961329072",
    "latitude": 10.675394,
    "longitude": 107.078955
  },
  {
    "id": "C0059",
    "name": "Lê Văn Linh",
    "address": "1230 Quang Trung, TP. Bà Rịa, Bà Rịa - Vũng Tàu",
    "phone": "0973332991",
    "latitude": 10.568011,
    "longitude": 107.042051
  },
  {
    "id": "C0060",
    "name": "Huỳnh Văn Bình",
    "address": "1168 Lê Lợi, TP. Bà Rịa, Bà Rịa - Vũng Tàu",
    "phone": "0996991960",
    "latitude": 10.584994,
    "longitude": 107.147376
  },
  {
    "id": "C0061",
    "name": "Nguyễn Văn Quân",
    "address": "655 Lê Lợi, Huyện Xuyên Mộc, Bà Rịa - Vũng Tàu",
    "phone": "0987800698",
    "latitude": 10.468509,
    "longitude": 107.071072
  },
  {
    "id": "C0062",
    "name": "Đặng Văn Nga",
    "address": "661 Phan Bội Châu, Thị xã Phú Mỹ, Bà Rịa - Vũng Tàu",
    "phone": "0942556349",
    "latitude": 10.383691,
    "longitude": 107.074488
  },
  {
    "id": "C0063",
    "name": "Trần Văn Cường",
    "address": "1111 Nguyễn Huệ, TP. Vũng Tàu, Bà Rịa - Vũng Tàu",
    "phone": "0942868222",
    "latitude": 10.589501,
    "longitude": 106.951618
  },
  {
    "id": "C0064",
    "name": "Trần Văn Nga",
    "address": "372 Cách Mạng Tháng Tám, TP. Bà Rịa, Bà Rịa - Vũng Tàu",
    "phone": "0958206409",
    "latitude": 10.611439,
    "longitude": 107.00478
  },
  {
    "id": "C0065",
    "name": "Trần Văn Cường",
    "address": "1156 30/4, Thị xã Phú Mỹ, Bà Rịa - Vũng Tàu",
    "phone": "0912041454",
    "latitude": 10.500688,
    "longitude": 107.095728
  },
  {
    "id": "C0066",
    "name": "Võ Văn Linh",
    "address": "437 Nguyễn Huệ, TP. Vũng Tàu, Bà Rịa - Vũng Tàu",
    "phone": "0966828152",
    "latitude": 10.709471,
    "longitude": 107.137832
  },
  {
    "id": "C0067",
    "name": "Bùi Văn Dung",
    "address": "1018 Lý Thường Kiệt, TP. Bà Rịa, Bà Rịa - Vũng Tàu",
    "phone": "0919082377",
    "latitude": 10.640567,
    "longitude": 106.90193
  },
  {
    "id": "C0068",
    "name": "Trần Văn Quân",
    "address": "489 Hùng Vương, TP. Vũng Tàu, Bà Rịa - Vũng Tàu",
    "phone": "0922912018",
    "latitude": 10.643226,
    "longitude": 106.920542
  },
  {
    "id": "C0069",
    "name": "Đỗ Văn An",
    "address": "43 Cách Mạng Tháng Tám, TP. Vũng Tàu, Bà Rịa - Vũng Tàu",
    "phone": "0953015838",
    "latitude": 10.594863,
    "longitude": 106.999651
  },
  {
    "id": "C0070",
    "name": "Nguyễn Văn Minh",
    "address": "586 Điện Biên Phủ, Huyện Xuyên Mộc, Bà Rịa - Vũng Tàu",
    "phone": "0937995433",
    "latitude": 10.590276,
    "longitude": 106.91047
  },
  {
    "id": "C0071",
    "name": "Hoàng Văn Phương",
    "address": "822 Hùng Vương, Thị xã Phú Mỹ, Bà Rịa - Vũng Tàu",
    "phone": "0915977796",
    "latitude": 10.676158,
    "longitude": 107.450475
  },
  {
    "id": "C0072",
    "name": "Bùi Văn Hải",
    "address": "926 Trần Hưng Đạo, Huyện Xuyên Mộc, Bà Rịa - Vũng Tàu",
    "phone": "0917473026",
    "latitude": 10.626812,
    "longitude": 107.17002
  },
  {
    "id": "C0073",
    "name": "Huỳnh Văn Cường",
    "address": "416 Điện Biên Phủ, Thị xã Phú Mỹ, Bà Rịa - Vũng Tàu",
    "phone": "0957564381",
    "latitude": 10.529067,
    "longitude": 107.102188
  },
  {
    "id": "C0074",
    "name": "Võ Văn Quân",
    "address": "70 30/4, Thị xã Phú Mỹ, Bà Rịa - Vũng Tàu",
    "phone": "0923363678",
    "latitude": 10.480506,
    "longitude": 107.125835
  },
  {
    "id": "C0075",
    "name": "Đỗ Văn An",
    "address": "424 Cách Mạng Tháng Tám, TP. Vũng Tàu, Bà Rịa - Vũng Tàu",
    "phone": "0941036614",
    "latitude": 10.593291,
    "longitude": 106.94411
  },
  {
    "id": "C0076",
    "name": "Bùi Văn Linh",
    "address": "1021 Cách Mạng Tháng Tám, Thị xã Phú Mỹ, Bà Rịa - Vũng Tàu",
    "phone": "0982877782",
    "latitude": 10.524012,
    "longitude": 107.150891
  },
  {
    "id": "C0077",
    "name": "Nguyễn Văn Bình",
    "address": "559 30/4, Huyện Xuyên Mộc, Bà Rịa - Vũng Tàu",
    "phone": "0917260575",
    "latitude": 10.637424,
    "longitude": 106.936828
  },
  {
    "id": "C0078",
    "name": "Bùi Văn Hải",
    "address": "1485 Nguyễn Huệ, Thị xã Phú Mỹ, Bà Rịa - Vũng Tàu",
    "phone": "0986315716",
    "latitude": 10.623656,
    "longitude": 107.114463
  },
  {
    "id": "C0079",
    "name": "Nguyễn Văn Nga",
    "address": "293 30/4, TP. Bà Rịa, Bà Rịa - Vũng Tàu",
    "phone": "0985264088",
    "latitude": 10.666362,
    "longitude": 106.974893
  },
  {
    "id": "C0080",
    "name": "Nguyễn Văn Nga",
    "address": "899 Quang Trung, Huyện Xuyên Mộc, Bà Rịa - Vũng Tàu",
    "phone": "0994628230",
    "latitude": 10.581106,
    "longitude": 106.954043
  },
  {
    "id": "C0081",
    "name": "Nguyễn Văn Minh",
    "address": "1312 Điện Biên Phủ, Huyện Xuyên Mộc, Bà Rịa - Vũng Tàu",
    "phone": "0932204867",
    "latitude": 10.713395,
    "longitude": 106.965912
  },
  {
    "id": "C0082",
    "name": "Huỳnh Văn Minh",
    "address": "99 Lý Thường Kiệt, TP. Vũng Tàu, Bà Rịa - Vũng Tàu",
    "phone": "0919930940",
    "latitude": 10.563455,
    "longitude": 107.05025
  },
  {
    "id": "C0083",
    "name": "Võ Văn Cường",
    "address": "583 30/4, TP. Bà Rịa, Bà Rịa - Vũng Tàu",
    "phone": "0953059261",
    "latitude": 10.645482,
    "longitude": 106.951657
  },
  {
    "id": "C0084",
    "name": "Lê Văn Phương",
    "address": "1125 Điện Biên Phủ, Huyện Châu Đức, Bà Rịa - Vũng Tàu",
    "phone": "0953710128",
    "latitude": 10.654228,
    "longitude": 106.975424
  },
  {
    "id": "C0085",
    "name": "Phạm Văn Hải",
    "address": "557 Trần Hưng Đạo, Thị xã Phú Mỹ, Bà Rịa - Vũng Tàu",
    "phone": "0922022971",
    "latitude": 10.623158,
    "longitude": 107.102621
  },
  {
    "id": "C0086",
    "name": "Bùi Văn Cường",
    "address": "621 30/4, TP. Bà Rịa, Bà Rịa - Vũng Tàu",
    "phone": "0930768752",
    "latitude": 10.620909,
    "longitude": 107.169879
  },
  {
    "id": "C0087",
    "name": "Trần Văn Nga",
    "address": "1104 Điện Biên Phủ, Huyện Xuyên Mộc, Bà Rịa - Vũng Tàu",
    "phone": "0972306521",
    "latitude": 10.441213,
    "longitude": 107.065617
  },
  {
    "id": "C0088",
    "name": "Hoàng Văn Linh",
    "address": "1077 Cách Mạng Tháng Tám, TP. Bà Rịa, Bà Rịa - Vũng Tàu",
    "phone": "0971423598",
    "latitude": 10.597714,
    "longitude": 106.964942
  },
  {
    "id": "C0089",
    "name": "Đặng Văn Linh",
    "address": "21 Điện Biên Phủ, Huyện Xuyên Mộc, Bà Rịa - Vũng Tàu",
    "phone": "0923841566",
    "latitude": 10.708139,
    "longitude": 107.077036
  },
  {
    "id": "C0090",
    "name": "Huỳnh Văn Nga",
    "address": "1192 Nguyễn Huệ, TP. Thủ Dầu Một, Bình Dương",
    "phone": "0913398200",
    "latitude": 11.073887,
    "longitude": 106.623935
  },
  {
    "id": "C0091",
    "name": "Hoàng Văn Bình",
    "address": "556 Điện Biên Phủ, Huyện Dầu Tiếng, Bình Dương",
    "phone": "0996282676",
    "latitude": 11.350885,
    "longitude": 106.574864
  },
  {
    "id": "C0092",
    "name": "Bùi Văn Phương",
    "address": "278 Lý Thường Kiệt, TP. Thuận An, Bình Dương",
    "phone": "0923656377",
    "latitude": 11.117697,
    "longitude": 106.637407
  },
  {
    "id": "C0093",
    "name": "Huỳnh Văn Cường",
    "address": "1370 Lê Lợi, TP. Thuận An, Bình Dương",
    "phone": "0952799513",
    "latitude": 11.248336,
    "longitude": 106.600946
  },
  {
    "id": "C0094",
    "name": "Nguyễn Văn Linh",
    "address": "237 Điện Biên Phủ, Thị xã Bến Cát, Bình Dương",
    "phone": "0915084809",
    "latitude": 11.370242,
    "longitude": 106.532096
  },
  {
    "id": "C0095",
    "name": "Huỳnh Văn Bình",
    "address": "1466 Hùng Vương, Thị xã Bến Cát, Bình Dương",
    "phone": "0924624613",
    "latitude": 11.209524,
    "longitude": 106.420729
  },
  {
    "id": "C0096",
    "name": "Hoàng Văn Hải",
    "address": "691 30/4, Huyện Dầu Tiếng, Bình Dương",
    "phone": "0979376057",
    "latitude": 11.363194,
    "longitude": 106.505773
  },
  {
    "id": "C0097",
    "name": "Trần Văn Phương",
    "address": "601 Nguyễn Huệ, TP. Thuận An, Bình Dương",
    "phone": "0998512052",
    "latitude": 11.406827,
    "longitude": 106.490072
  },
  {
    "id": "C0098",
    "name": "Phạm Văn Minh",
    "address": "79 Hùng Vương, TP. Thủ Dầu Một, Bình Dương",
    "phone": "0924890843",
    "latitude": 11.367015,
    "longitude": 106.631412
  },
  {
    "id": "C0099",
    "name": "Võ Văn Bình",
    "address": "910 Trần Hưng Đạo, TP. Dĩ An, Bình Dương",
    "phone": "0934714687",
    "latitude": 11.041841,
    "longitude": 106.799814
  },
  {
    "id": "C0100",
    "name": "Bùi Văn Minh",
    "address": "970 Lê Lợi, TP. Thủ Dầu Một, Bình Dương",
    "phone": "0971091725",
    "latitude": 11.065918,
    "longitude": 106.640491
  },
  {
    "id": "C0101",
    "name": "Phạm Văn Nga",
    "address": "450 Quang Trung, Thị xã Bến Cát, Bình Dương",
    "phone": "0950199559",
    "latitude": 11.393505,
    "longitude": 106.717745
  },
  {
    "id": "C0102",
    "name": "Huỳnh Văn Minh",
    "address": "1304 Quang Trung, Thị xã Bến Cát, Bình Dương",
    "phone": "0978188417",
    "latitude": 11.234215,
    "longitude": 106.621738
  },
  {
    "id": "C0103",
    "name": "Huỳnh Văn An",
    "address": "45 Quang Trung, TP. Thuận An, Bình Dương",
    "phone": "0964104521",
    "latitude": 11.364917,
    "longitude": 106.478874
  },
  {
    "id": "C0104",
    "name": "Huỳnh Văn Nga",
    "address": "141 Điện Biên Phủ, Thị xã Bến Cát, Bình Dương",
    "phone": "0993950202",
    "latitude": 11.035708,
    "longitude": 106.790167
  },
  {
    "id": "C0105",
    "name": "Phạm Văn Dung",
    "address": "88 Phan Bội Châu, Huyện Dầu Tiếng, Bình Dương",
    "phone": "0930520705",
    "latitude": 11.091628,
    "longitude": 106.60441
  },
  {
    "id": "C0106",
    "name": "Hoàng Văn Minh",
    "address": "306 Nguyễn Huệ, TP. Thuận An, Bình Dương",
    "phone": "0966224231",
    "latitude": 11.115663,
    "longitude": 106.695205
  },
  {
    "id": "C0107",
    "name": "Phạm Văn Minh",
    "address": "491 Nguyễn Huệ, TP. Thủ Dầu Một, Bình Dương",
    "phone": "0962432694",
    "latitude": 11.241591,
    "longitude": 106.700995
  },
  {
    "id": "C0108",
    "name": "Võ Văn Bình",
    "address": "174 Trần Hưng Đạo, TP. Thuận An, Bình Dương",
    "phone": "0944213738",
    "latitude": 11.275332,
    "longitude": 106.553833
  },
  {
    "id": "C0109",
    "name": "Phạm Văn Hải",
    "address": "615 Trần Hưng Đạo, TP. Thủ Dầu Một, Bình Dương",
    "phone": "0965534756",
    "latitude": 11.070942,
    "longitude": 106.78313
  },
  {
    "id": "C0110",
    "name": "Nguyễn Văn Hải",
    "address": "95 Lý Thường Kiệt, TP. Thủ Dầu Một, Bình Dương",
    "phone": "0954505756",
    "latitude": 11.116657,
    "longitude": 106.888629
  },
  {
    "id": "C0111",
    "name": "Đỗ Văn Quân",
    "address": "635 Trần Hưng Đạo, Huyện Dầu Tiếng, Bình Dương",
    "phone": "0975936747",
    "latitude": 11.370929,
    "longitude": 106.845908
  },
  {
    "id": "C0112",
    "name": "Trần Văn Phương",
    "address": "831 Quang Trung, TP. Thủ Dầu Một, Bình Dương",
    "phone": "0945919627",
    "latitude": 11.323506,
    "longitude": 106.600999
  },
  {
    "id": "C0113",
    "name": "Nguyễn Văn Quân",
    "address": "902 Lý Thường Kiệt, TP. Thủ Dầu Một, Bình Dương",
    "phone": "0979745885",
    "latitude": 11.035965,
    "longitude": 106.492235
  },
  {
    "id": "C0114",
    "name": "Bùi Văn Nga",
    "address": "541 Phan Bội Châu, TP. Dĩ An, Bình Dương",
    "phone": "0924859353",
    "latitude": 11.199901,
    "longitude": 106.480443
  },
  {
    "id": "C0115",
    "name": "Lê Văn Hải",
    "address": "37 Phan Bội Châu, Huyện Dầu Tiếng, Bình Dương",
    "phone": "0911188967",
    "latitude": 11.28631,
    "longitude": 106.65441
  },
  {
    "id": "C0116",
    "name": "Trần Văn Phương",
    "address": "211 Lý Thường Kiệt, TP. Thuận An, Bình Dương",
    "phone": "0928190512",
    "latitude": 11.254265,
    "longitude": 106.733543
  },
  {
    "id": "C0117",
    "name": "Huỳnh Văn Minh",
    "address": "352 Hùng Vương, Thị xã Bến Cát, Bình Dương",
    "phone": "0922675517",
    "latitude": 11.358243,
    "longitude": 106.761838
  },
  {
    "id": "C0118",
    "name": "Phạm Văn An",
    "address": "945 Quang Trung, Huyện Dầu Tiếng, Bình Dương",
    "phone": "0942379016",
    "latitude": 11.183612,
    "longitude": 106.628027
  },
  {
    "id": "C0119",
    "name": "Võ Văn Cường",
    "address": "485 Quang Trung, Thị xã Bến Cát, Bình Dương",
    "phone": "0976116086",
    "latitude": 11.092616,
    "longitude": 106.7949
  },
  {
    "id": "C0120",
    "name": "Đỗ Văn Quân",
    "address": "527 Phan Bội Châu, Thị xã Bến Cát, Bình Dương",
    "phone": "0978204793",
    "latitude": 11.27662,
    "longitude": 106.460547
  },
  {
    "id": "C0121",
    "name": "Đặng Văn Bình",
    "address": "1037 30/4, Huyện Dầu Tiếng, Bình Dương",
    "phone": "0939457116",
    "latitude": 11.450534,
    "longitude": 106.681401
  },
  {
    "id": "C0122",
    "name": "Đỗ Văn Bình",
    "address": "54 Hùng Vương, TP. Dĩ An, Bình Dương",
    "phone": "0984159924",
    "latitude": 11.168995,
    "longitude": 106.530202
  },
  {
    "id": "C0123",
    "name": "Phạm Văn Dung",
    "address": "1091 Nguyễn Huệ, TP. Thuận An, Bình Dương",
    "phone": "0996424748",
    "latitude": 11.429595,
    "longitude": 106.59622
  },
  {
    "id": "C0124",
    "name": "Đỗ Văn Phương",
    "address": "271 Hùng Vương, Thị xã Bến Cát, Bình Dương",
    "phone": "0965055694",
    "latitude": 11.333479,
    "longitude": 106.561879
  },
  {
    "id": "C0125",
    "name": "Võ Văn Linh",
    "address": "358 Phan Bội Châu, TP. Thuận An, Bình Dương",
    "phone": "0913354237",
    "latitude": 11.085249,
    "longitude": 106.595717
  },
  {
    "id": "C0126",
    "name": "Hoàng Văn Linh",
    "address": "252 Trần Hưng Đạo, TP. Thủ Dầu Một, Bình Dương",
    "phone": "0991465668",
    "latitude": 11.330074,
    "longitude": 106.587668
  },
  {
    "id": "C0127",
    "name": "Huỳnh Văn Cường",
    "address": "207 Hùng Vương, Huyện Dầu Tiếng, Bình Dương",
    "phone": "0976483502",
    "latitude": 11.210308,
    "longitude": 106.870271
  },
  {
    "id": "C0128",
    "name": "Đỗ Văn Hải",
    "address": "244 Cách Mạng Tháng Tám, TP. Thuận An, Bình Dương",
    "phone": "0968745805",
    "latitude": 11.087412,
    "longitude": 106.570365
  },
  {
    "id": "C0129",
    "name": "Phạm Văn An",
    "address": "1367 Phan Bội Châu, TP. Thuận An, Bình Dương",
    "phone": "0965347739",
    "latitude": 11.086134,
    "longitude": 106.555448
  },
  {
    "id": "C0130",
    "name": "Hoàng Văn Bình",
    "address": "603 Trần Hưng Đạo, TP. Thuận An, Bình Dương",
    "phone": "0953229986",
    "latitude": 11.140021,
    "longitude": 106.7281
  },
  {
    "id": "C0131",
    "name": "Trần Văn Cường",
    "address": "238 Quang Trung, Huyện Dầu Tiếng, Bình Dương",
    "phone": "0974637391",
    "latitude": 11.248473,
    "longitude": 106.642206
  },
  {
    "id": "C0132",
    "name": "Trần Văn Nga",
    "address": "1161 Trần Hưng Đạo, Thị xã Bến Cát, Bình Dương",
    "phone": "0964348812",
    "latitude": 11.317488,
    "longitude": 106.49693
  },
  {
    "id": "C0133",
    "name": "Lê Văn Cường",
    "address": "1031 Trần Hưng Đạo, TP. Dĩ An, Bình Dương",
    "phone": "0975540542",
    "latitude": 11.316928,
    "longitude": 106.816582
  },
  {
    "id": "C0134",
    "name": "Lê Văn Linh",
    "address": "799 Trần Hưng Đạo, Huyện Dầu Tiếng, Bình Dương",
    "phone": "0956106954",
    "latitude": 11.067737,
    "longitude": 106.602946
  },
  {
    "id": "C0135",
    "name": "Huỳnh Văn Hải",
    "address": "927 Trần Hưng Đạo, Thị xã Bến Cát, Bình Dương",
    "phone": "0998264583",
    "latitude": 11.123356,
    "longitude": 106.689858
  },
  {
    "id": "C0136",
    "name": "Lê Văn Dung",
    "address": "115 Phan Bội Châu, Huyện Dầu Tiếng, Bình Dương",
    "phone": "0976971796",
    "latitude": 11.141924,
    "longitude": 106.767997
  },
  {
    "id": "C0137",
    "name": "Bùi Văn Bình",
    "address": "60 Lý Thường Kiệt, Huyện Dầu Tiếng, Bình Dương",
    "phone": "0946905609",
    "latitude": 11.405837,
    "longitude": 106.759844
  },
  {
    "id": "C0138",
    "name": "Lê Văn Quân",
    "address": "1486 Điện Biên Phủ, TP. Thủ Dầu Một, Bình Dương",
    "phone": "0942250440",
    "latitude": 11.091952,
    "longitude": 106.693288
  },
  {
    "id": "C0139",
    "name": "Huỳnh Văn Cường",
    "address": "1111 Nguyễn Huệ, TP. Thủ Dầu Một, Bình Dương",
    "phone": "0918727847",
    "latitude": 11.285206,
    "longitude": 106.747636
  },
  {
    "id": "C0140",
    "name": "Đỗ Văn Dung",
    "address": "1154 Lê Lợi, TP. Thủ Dầu Một, Bình Dương",
    "phone": "0949437353",
    "latitude": 11.143235,
    "longitude": 106.682797
  },
  {
    "id": "C0141",
    "name": "Trần Văn Phương",
    "address": "383 Quang Trung, TP. Dĩ An, Bình Dương",
    "phone": "0957850059",
    "latitude": 11.302945,
    "longitude": 106.516554
  },
  {
    "id": "C0142",
    "name": "Võ Văn Linh",
    "address": "357 Nguyễn Huệ, Huyện Dầu Tiếng, Bình Dương",
    "phone": "0928017165",
    "latitude": 11.027864,
    "longitude": 106.586433
  },
  {
    "id": "C0143",
    "name": "Võ Văn Nga",
    "address": "688 Điện Biên Phủ, Huyện Dầu Tiếng, Bình Dương",
    "phone": "0957265113",
    "latitude": 11.398292,
    "longitude": 106.562283
  },
  {
    "id": "C0144",
    "name": "Đỗ Văn Phương",
    "address": "885 Điện Biên Phủ, TP. Dĩ An, Bình Dương",
    "phone": "0989208660",
    "latitude": 11.149207,
    "longitude": 106.835759
  },
  {
    "id": "C0145",
    "name": "Phạm Văn An",
    "address": "1219 Trần Hưng Đạo, Thị xã Bến Cát, Bình Dương",
    "phone": "0959073858",
    "latitude": 11.025851,
    "longitude": 106.779646
  },
  {
    "id": "C0146",
    "name": "Lê Văn Cường",
    "address": "1423 Phan Bội Châu, Thị xã Bến Cát, Bình Dương",
    "phone": "0941760756",
    "latitude": 11.291792,
    "longitude": 106.561589
  },
  {
    "id": "C0147",
    "name": "Bùi Văn An",
    "address": "694 Quang Trung, TP. Thuận An, Bình Dương",
    "phone": "0916325319",
    "latitude": 11.167985,
    "longitude": 106.632094
  },
  {
    "id": "C0148",
    "name": "Bùi Văn An",
    "address": "1171 Trần Hưng Đạo, TP. Dĩ An, Bình Dương",
    "phone": "0952775825",
    "latitude": 10.994869,
    "longitude": 106.631004
  },
  {
    "id": "C0149",
    "name": "Nguyễn Văn Cường",
    "address": "452 Lý Thường Kiệt, TP. Thủ Dầu Một, Bình Dương",
    "phone": "0914988723",
    "latitude": 11.157506,
    "longitude": 106.874772
  },
  {
    "id": "C0150",
    "name": "Võ Văn An",
    "address": "473 Nguyễn Huệ, Huyện Dầu Tiếng, Bình Dương",
    "phone": "0924404526",
    "latitude": 11.172262,
    "longitude": 106.668977
  },
  {
    "id": "C0151",
    "name": "Huỳnh Văn Dung",
    "address": "524 Trần Hưng Đạo, TP. Dĩ An, Bình Dương",
    "phone": "0930539872",
    "latitude": 11.368503,
    "longitude": 106.484902
  },
  {
    "id": "C0152",
    "name": "Đỗ Văn Bình",
    "address": "1034 30/4, Thị xã Bến Cát, Bình Dương",
    "phone": "0975560344",
    "latitude": 11.07906,
    "longitude": 106.695084
  },
  {
    "id": "C0153",
    "name": "Võ Văn Phương",
    "address": "28 30/4, TP. Thuận An, Bình Dương",
    "phone": "0934249530",
    "latitude": 11.324115,
    "longitude": 106.82714
  },
  {
    "id": "C0154",
    "name": "Đặng Văn Minh",
    "address": "1209 Hùng Vương, Thị xã Bến Cát, Bình Dương",
    "phone": "0973146190",
    "latitude": 11.231783,
    "longitude": 106.623011
  },
  {
    "id": "C0155",
    "name": "Bùi Văn Hải",
    "address": "1156 Lý Thường Kiệt, TP. Thủ Dầu Một, Bình Dương",
    "phone": "0923908066",
    "latitude": 11.112333,
    "longitude": 106.780245
  },
  {
    "id": "C0156",
    "name": "Đỗ Văn Quân",
    "address": "552 Hùng Vương, TP. Thủ Dầu Một, Bình Dương",
    "phone": "0994127179",
    "latitude": 11.272712,
    "longitude": 106.75552
  },
  {
    "id": "C0157",
    "name": "Bùi Văn Nga",
    "address": "1232 Lý Thường Kiệt, Thị xã Bến Cát, Bình Dương",
    "phone": "0913249546",
    "latitude": 11.232047,
    "longitude": 106.507593
  },
  {
    "id": "C0158",
    "name": "Lê Văn Bình",
    "address": "827 Phan Bội Châu, TP. Thủ Dầu Một, Bình Dương",
    "phone": "0936714876",
    "latitude": 11.079773,
    "longitude": 106.818854
  },
  {
    "id": "C0159",
    "name": "Phạm Văn Dung",
    "address": "605 Lý Thường Kiệt, TP. Thuận An, Bình Dương",
    "phone": "0918610228",
    "latitude": 11.297411,
    "longitude": 106.714504
  },
  {
    "id": "C0160",
    "name": "Huỳnh Văn Bình",
    "address": "269 Quang Trung, Huyện Dầu Tiếng, Bình Dương",
    "phone": "0935542996",
    "latitude": 11.138555,
    "longitude": 106.579101
  },
  {
    "id": "C0161",
    "name": "Đặng Văn Dung",
    "address": "138 Quang Trung, TP. Thuận An, Bình Dương",
    "phone": "0927451530",
    "latitude": 11.104013,
    "longitude": 106.655891
  },
  {
    "id": "C0162",
    "name": "Huỳnh Văn Hải",
    "address": "38 Phan Bội Châu, Thị xã Bến Cát, Bình Dương",
    "phone": "0960091190",
    "latitude": 11.282688,
    "longitude": 106.842798
  },
  {
    "id": "C0163",
    "name": "Đặng Văn Hải",
    "address": "1035 Lý Thường Kiệt, Thị xã Bến Cát, Bình Dương",
    "phone": "0952282055",
    "latitude": 11.340696,
    "longitude": 106.869433
  },
  {
    "id": "C0164",
    "name": "Hoàng Văn Quân",
    "address": "269 Quang Trung, TP. Thuận An, Bình Dương",
    "phone": "0973147446",
    "latitude": 11.012493,
    "longitude": 106.77791
  },
  {
    "id": "C0165",
    "name": "Bùi Văn Minh",
    "address": "983 Trần Hưng Đạo, TP. Thủ Dầu Một, Bình Dương",
    "phone": "0987619288",
    "latitude": 11.117876,
    "longitude": 106.518484
  },
  {
    "id": "C0166",
    "name": "Đỗ Văn Quân",
    "address": "1135 30/4, TP. Thuận An, Bình Dương",
    "phone": "0916104915",
    "latitude": 11.239048,
    "longitude": 106.499135
  },
  {
    "id": "C0167",
    "name": "Đỗ Văn Dung",
    "address": "859 Quang Trung, Huyện Dầu Tiếng, Bình Dương",
    "phone": "0972318870",
    "latitude": 11.426117,
    "longitude": 106.534196
  },
  {
    "id": "C0168",
    "name": "Đặng Văn Cường",
    "address": "261 Lê Lợi, TP. Thủ Dầu Một, Bình Dương",
    "phone": "0956944748",
    "latitude": 11.169964,
    "longitude": 106.570525
  },
  {
    "id": "C0169",
    "name": "Nguyễn Văn Dung",
    "address": "104 Trần Hưng Đạo, Huyện Dầu Tiếng, Bình Dương",
    "phone": "0920453744",
    "latitude": 11.263697,
    "longitude": 106.622136
  },
  {
    "id": "C0170",
    "name": "Huỳnh Văn Minh",
    "address": "771 Hùng Vương, Thị xã Bến Cát, Bình Dương",
    "phone": "0977328770",
    "latitude": 11.100781,
    "longitude": 106.585307
  },
  {
    "id": "C0171",
    "name": "Hoàng Văn Nga",
    "address": "762 Trần Hưng Đạo, Thị xã Bến Cát, Bình Dương",
    "phone": "0921627748",
    "latitude": 11.220292,
    "longitude": 106.805034
  },
  {
    "id": "C0172",
    "name": "Huỳnh Văn An",
    "address": "1217 Hùng Vương, TP. Thủ Dầu Một, Bình Dương",
    "phone": "0981123538",
    "latitude": 11.176013,
    "longitude": 106.609932
  },
  {
    "id": "C0173",
    "name": "Huỳnh Văn Cường",
    "address": "805 Điện Biên Phủ, Huyện Dầu Tiếng, Bình Dương",
    "phone": "0991283178",
    "latitude": 11.037198,
    "longitude": 106.592678
  },
  {
    "id": "C0174",
    "name": "Lê Văn Hải",
    "address": "1327 Phan Bội Châu, TP. Dĩ An, Bình Dương",
    "phone": "0964306028",
    "latitude": 11.360349,
    "longitude": 106.558099
  },
  {
    "id": "C0175",
    "name": "Phạm Văn Quân",
    "address": "406 Quang Trung, Thị xã Bến Cát, Bình Dương",
    "phone": "0938211468",
    "latitude": 11.228183,
    "longitude": 106.578642
  },
  {
    "id": "C0176",
    "name": "Bùi Văn Phương",
    "address": "815 Hùng Vương, TP. Dĩ An, Bình Dương",
    "phone": "0935043044",
    "latitude": 11.319338,
    "longitude": 106.81769
  },
  {
    "id": "C0177",
    "name": "Phạm Văn Minh",
    "address": "603 Cách Mạng Tháng Tám, Thị xã Bến Cát, Bình Dương",
    "phone": "0953379133",
    "latitude": 11.181011,
    "longitude": 106.839754
  },
  {
    "id": "C0178",
    "name": "Hoàng Văn Phương",
    "address": "483 Cách Mạng Tháng Tám, Huyện Dầu Tiếng, Bình Dương",
    "phone": "0995861268",
    "latitude": 11.438393,
    "longitude": 106.652813
  },
  {
    "id": "C0179",
    "name": "Võ Văn Cường",
    "address": "726 Phan Bội Châu, Huyện Chơn Thành, Bình Phước",
    "phone": "0925140236",
    "latitude": 12.091726,
    "longitude": 107.243772
  },
  {
    "id": "C0180",
    "name": "Hoàng Văn Quân",
    "address": "1219 Điện Biên Phủ, Thị xã Bình Long, Bình Phước",
    "phone": "0950253785",
    "latitude": 12.159223,
    "longitude": 106.995868
  },
  {
    "id": "C0181",
    "name": "Trần Văn Minh",
    "address": "287 Lê Lợi, Thị xã Bình Long, Bình Phước",
    "phone": "0985451070",
    "latitude": 11.758959,
    "longitude": 106.757151
  },
  {
    "id": "C0182",
    "name": "Võ Văn Bình",
    "address": "542 Cách Mạng Tháng Tám, Huyện Chơn Thành, Bình Phước",
    "phone": "0996600312",
    "latitude": 12.014211,
    "longitude": 106.833322
  },
  {
    "id": "C0183",
    "name": "Võ Văn Nga",
    "address": "1243 Lý Thường Kiệt, TP. Đồng Xoài, Bình Phước",
    "phone": "0945815157",
    "latitude": 12.125364,
    "longitude": 106.955056
  },
  {
    "id": "C0184",
    "name": "Đặng Văn Linh",
    "address": "780 Quang Trung, TP. Đồng Xoài, Bình Phước",
    "phone": "0921274426",
    "latitude": 11.458932,
    "longitude": 108.067310
  },
  {
    "id": "C0185",
    "name": "Đặng Văn Cường",
    "address": "165 30/4, Thị xã Bình Long, Bình Phước",
    "phone": "0992509717",
    "latitude": 11.675761,
    "longitude": 106.917946
  },
  {
    "id": "C0186",
    "name": "Đặng Văn Nga",
    "address": "646 Hùng Vương, TP. Đồng Xoài, Bình Phước",
    "phone": "0984415563",
    "latitude": 11.777524,
    "longitude": 107.027986
  },
  {
    "id": "C0187",
    "name": "Huỳnh Văn Hải",
    "address": "1138 Phan Bội Châu, TP. Đồng Xoài, Bình Phước",
    "phone": "0940813722",
    "latitude": 11.449288,
    "longitude": 106.897464
  },
  {
    "id": "C0188",
    "name": "Võ Văn Phương",
    "address": "505 Quang Trung, Thị xã Bình Long, Bình Phước",
    "phone": "0934132215",
    "latitude": 11.929845,
    "longitude": 107.091841
  },
  {
    "id": "C0189",
    "name": "Trần Văn Cường",
    "address": "1011 Hùng Vương, Huyện Bù Đăng, Bình Phước",
    "phone": "0990371164",
    "latitude": 11.6148,
    "longitude": 106.948575
  },
  {
    "id": "C0190",
    "name": "Bùi Văn Cường",
    "address": "831 Quang Trung, Thị xã Bình Long, Bình Phước",
    "phone": "0924302310",
    "latitude": 12.219736,
    "longitude": 107.208758
  },
  {
    "id": "C0191",
    "name": "Phạm Văn Dung",
    "address": "1119 30/4, TP. Đồng Xoài, Bình Phước",
    "phone": "0943828031",
    "latitude": 11.948378,
    "longitude": 106.897254
  },
  {
    "id": "C0192",
    "name": "Đặng Văn Dung",
    "address": "150 Lê Lợi, TP. Đồng Xoài, Bình Phước",
    "phone": "0989543015",
    "latitude": 12.138541,
    "longitude": 107.085162
  },
  {
    "id": "C0193",
    "name": "Phạm Văn Quân",
    "address": "997 Nguyễn Huệ, Thị xã Phước Long, Bình Phước",
    "phone": "0924434403",
    "latitude": 11.908877,
    "longitude": 106.952333
  },
  {
    "id": "C0194",
    "name": "Huỳnh Văn Cường",
    "address": "534 Quang Trung, TP. Đồng Xoài, Bình Phước",
    "phone": "0972950139",
    "latitude": 11.622393,
    "longitude": 107.203373
  },
  {
    "id": "C0195",
    "name": "Huỳnh Văn Dung",
    "address": "1337 Phan Bội Châu, Thị xã Bình Long, Bình Phước",
    "phone": "0939587893",
    "latitude": 11.700757,
    "longitude": 106.841434
  },
  {
    "id": "C0196",
    "name": "Bùi Văn An",
    "address": "56 Điện Biên Phủ, Thị xã Bình Long, Bình Phước",
    "phone": "0998154561",
    "latitude": 11.583824,
    "longitude": 107.167871
  },
  {
    "id": "C0197",
    "name": "Võ Văn Cường",
    "address": "948 Điện Biên Phủ, Huyện Chơn Thành, Bình Phước",
    "phone": "0993696057",
    "latitude": 11.587399,
    "longitude": 106.527184
  },
  {
    "id": "C0198",
    "name": "Đỗ Văn Minh",
    "address": "234 Trần Hưng Đạo, Huyện Chơn Thành, Bình Phước",
    "phone": "0924532012",
    "latitude": 11.499059,
    "longitude": 107.040004
  },
  {
    "id": "C0199",
    "name": "Võ Văn Hải",
    "address": "1450 Lý Thường Kiệt, TP. Đồng Xoài, Bình Phước",
    "phone": "0974143315",
    "latitude": 11.795817,
    "longitude": 106.818682
  },
  {
    "id": "C0200",
    "name": "Huỳnh Văn Bình",
    "address": "1041 Hùng Vương, Thị xã Phước Long, Bình Phước",
    "phone": "0919986494",
    "latitude": 11.744458,
    "longitude": 107.234848
  },
  {
    "id": "C0201",
    "name": "Phạm Văn Nga",
    "address": "212 Quang Trung, Huyện Bù Đăng, Bình Phước",
    "phone": "0957329126",
    "latitude": 12.003132,
    "longitude": 106.921944
  },
  {
    "id": "C0202",
    "name": "Trần Văn Minh",
    "address": "415 Phan Bội Châu, Thị xã Bình Long, Bình Phước",
    "phone": "0979197804",
    "latitude": 11.696317,
    "longitude": 106.986348
  },
  {
    "id": "C0203",
    "name": "Đỗ Văn Phương",
    "address": "288 Điện Biên Phủ, Thị xã Phước Long, Bình Phước",
    "phone": "0935017301",
    "latitude": 11.884887,
    "longitude": 107.087139
  },
  {
    "id": "C0204",
    "name": "Huỳnh Văn Minh",
    "address": "1460 Trần Hưng Đạo, Thị xã Bình Long, Bình Phước",
    "phone": "0926085368",
    "latitude": 11.951545,
    "longitude": 106.735566
  },
  {
    "id": "C0205",
    "name": "Võ Văn Linh",
    "address": "718 Điện Biên Phủ, Huyện Bù Đăng, Bình Phước",
    "phone": "0919243400",
    "latitude": 11.713575,
    "longitude": 107.13169
  },
  {
    "id": "C0206",
    "name": "Đặng Văn Minh",
    "address": "239 Lý Thường Kiệt, Huyện Bù Đăng, Bình Phước",
    "phone": "0912831429",
    "latitude": 11.843939,
    "longitude": 107.10346
  },
  {
    "id": "C0207",
    "name": "Lê Văn Hải",
    "address": "851 Quang Trung, Huyện Bù Đăng, Bình Phước",
    "phone": "0934834597",
    "latitude": 11.779347,
    "longitude": 107.237849
  },
  {
    "id": "C0208",
    "name": "Đỗ Văn An",
    "address": "694 Phan Bội Châu, Thị xã Phước Long, Bình Phước",
    "phone": "0964482380",
    "latitude": 11.952557,
    "longitude": 107.236138
  },
  {
    "id": "C0209",
    "name": "Đỗ Văn Nga",
    "address": "1216 Lý Thường Kiệt, Huyện Chơn Thành, Bình Phước",
    "phone": "0956959019",
    "latitude": 11.639189,
    "longitude": 106.647423
  },
  {
    "id": "C0210",
    "name": "Nguyễn Văn Linh",
    "address": "1436 Cách Mạng Tháng Tám, Huyện Chơn Thành, Bình Phước",
    "phone": "0942196145",
    "latitude": 11.746005,
    "longitude": 106.770257
  },
  {
    "id": "C0211",
    "name": "Phạm Văn Nga",
    "address": "1443 30/4, TP. Đồng Xoài, Bình Phước",
    "phone": "0950078540",
    "latitude": 11.491637,
    "longitude": 106.753214
  },
  {
    "id": "C0212",
    "name": "Huỳnh Văn Linh",
    "address": "1310 Hùng Vương, Huyện Bù Đăng, Bình Phước",
    "phone": "0948722313",
    "latitude": 11.374954,
    "longitude": 106.924159
  },
  {
    "id": "C0213",
    "name": "Bùi Văn Hải",
    "address": "800 Nguyễn Huệ, Thị xã Bình Long, Bình Phước",
    "phone": "0917363731",
    "latitude": 11.833058,
    "longitude": 107.058513
  },
  {
    "id": "C0214",
    "name": "Hoàng Văn Cường",
    "address": "148 Quang Trung, Huyện Chơn Thành, Bình Phước",
    "phone": "0948316941",
    "latitude": 12.053977,
    "longitude": 107.231814
  },
  {
    "id": "C0215",
    "name": "Trần Văn Linh",
    "address": "251 30/4, Thị xã Phước Long, Bình Phước",
    "phone": "0914752285",
    "latitude": 12.172499,
    "longitude": 107.114796
  },
  {
    "id": "C0216",
    "name": "Trần Văn Hải",
    "address": "439 Trần Hưng Đạo, Huyện Chơn Thành, Bình Phước",
    "phone": "0999419553",
    "latitude": 11.479951,
    "longitude": 107.053224
  },
  {
    "id": "C0217",
    "name": "Đặng Văn An",
    "address": "625 Phan Bội Châu, Huyện Chơn Thành, Bình Phước",
    "phone": "0972593722",
    "latitude": 12.16015,
    "longitude": 107.123728
  },
  {
    "id": "C0218",
    "name": "Bùi Văn Cường",
    "address": "523 Điện Biên Phủ, Thị xã Phước Long, Bình Phước",
    "phone": "0910701820",
    "latitude": 11.481504,
    "longitude": 108.085491
  },
  {
    "id": "C0219",
    "name": "Phạm Văn Nga",
    "address": "250 Lê Lợi, Thị xã Bình Long, Bình Phước",
    "phone": "0940271686",
    "latitude": 11.798152,
    "longitude": 107.042047
  },
  {
    "id": "C0220",
    "name": "Võ Văn Dung",
    "address": "612 Điện Biên Phủ, TP. Đồng Xoài, Bình Phước",
    "phone": "0918128743",
    "latitude": 11.065509,
    "longitude": 107.755482
  },
  {
    "id": "C0221",
    "name": "Huỳnh Văn An",
    "address": "322 Trần Hưng Đạo, Thị xã Phước Long, Bình Phước",
    "phone": "0995660680",
    "latitude": 11.759519,
    "longitude": 107.344774
  },
  {
    "id": "C0222",
    "name": "Đặng Văn Quân",
    "address": "1135 30/4, TP. Đồng Xoài, Bình Phước",
    "phone": "0993829509",
    "latitude": 12.121986,
    "longitude": 107.071087
  },
  {
    "id": "C0223",
    "name": "Lê Văn Quân",
    "address": "562 Điện Biên Phủ, TP. Đồng Xoài, Bình Phước",
    "phone": "0948333205",
    "latitude": 11.828912,
    "longitude": 106.754393
  },
  {
    "id": "C0224",
    "name": "Đỗ Văn Cường",
    "address": "764 Lý Thường Kiệt, TP. Đồng Xoài, Bình Phước",
    "phone": "0935945181",
    "latitude": 11.507795,
    "longitude": 106.760982
  },
  {
    "id": "C0225",
    "name": "Huỳnh Văn Linh",
    "address": "632 Cách Mạng Tháng Tám, Huyện Bù Đăng, Bình Phước",
    "phone": "0979549935",
    "latitude": 11.965727,
    "longitude": 106.954838
  },
  {
    "id": "C0226",
    "name": "Đặng Văn Linh",
    "address": "615 Trần Hưng Đạo, TP. Đồng Xoài, Bình Phước",
    "phone": "0956056766",
    "latitude": 11.926897,
    "longitude": 106.722433
  },
  {
    "id": "C0227",
    "name": "Võ Văn Bình",
    "address": "1440 Phan Bội Châu, TP. Đồng Xoài, Bình Phước",
    "phone": "0980988697",
    "latitude": 11.753472,
    "longitude": 106.635874
  },
  {
    "id": "C0228",
    "name": "Đặng Văn Cường",
    "address": "1199 Lê Lợi, Huyện Bù Đăng, Bình Phước",
    "phone": "0921456408",
    "latitude": 11.8213,
    "longitude": 106.991734
  },
  {
    "id": "C0229",
    "name": "Nguyễn Văn Linh",
    "address": "672 Trần Hưng Đạo, Huyện Chơn Thành, Bình Phước",
    "phone": "0953331478",
    "latitude": 11.863526,
    "longitude": 106.843046
  },
  {
    "id": "C0230",
    "name": "Hoàng Văn Hải",
    "address": "297 30/4, Thị xã Bình Long, Bình Phước",
    "phone": "0988984047",
    "latitude": 11.870125,
    "longitude":106.495007
  },
  {
    "id": "C0231",
    "name": "Võ Văn Minh",
    "address": "1087 Lý Thường Kiệt, Huyện Bù Đăng, Bình Phước",
    "phone": "0954763098",
    "latitude": 11.976496,
    "longitude": 107.257428
  },
  {
    "id": "C0232",
    "name": "Nguyễn Văn Bình",
    "address": "568 Trần Hưng Đạo, Thị xã Phước Long, Bình Phước",
    "phone": "0935278964",
    "latitude": 11.821360,
    "longitude": 106.550178
  },
  {
    "id": "C0233",
    "name": "Lê Văn Minh",
    "address": "10 Phan Bội Châu, Thị xã Phước Long, Bình Phước",
    "phone": "0914364216",
    "latitude": 11.918324,
    "longitude": 107.012615
  },
  {
    "id": "C0234",
    "name": "Đặng Văn Hải",
    "address": "751 Trần Hưng Đạo, TP. Đồng Xoài, Bình Phước",
    "phone": "0920668115",
    "latitude": 11.478377,
    "longitude": 106.829348
  },
  {
    "id": "C0235",
    "name": "Huỳnh Văn Quân",
    "address": "1237 Cách Mạng Tháng Tám, Huyện Bù Đăng, Bình Phước",
    "phone": "0917345069",
    "latitude": 11.071833,
    "longitude":107.712399
  },
  {
    "id": "C0236",
    "name": "Lê Văn An",
    "address": "1079 Lê Lợi, Thị xã Phước Long, Bình Phước",
    "phone": "0925200959",
    "latitude": 11.54442,
    "longitude": 106.80536
  },
  {
    "id": "C0237",
    "name": "Lê Văn Minh",
    "address": "433 30/4, Huyện Bù Đăng, Bình Phước",
    "phone": "0959844193",
    "latitude": 11.633819,
    "longitude": 106.892338
  },
  {
    "id": "C0238",
    "name": "Lê Văn Minh",
    "address": "924 Điện Biên Phủ, Huyện Chơn Thành, Bình Phước",
    "phone": "0939986781",
    "latitude": 11.950187,
    "longitude": 106.610757
  },
  {
    "id": "C0239",
    "name": "Phạm Văn Bình",
    "address": "367 Quang Trung, Thị xã Bình Long, Bình Phước",
    "phone": "0934681116",
    "latitude": 11.411752,
    "longitude": 106.86609
  },
  {
    "id": "C0240",
    "name": "Hoàng Văn Dung",
    "address": "120 Hùng Vương, Huyện Bù Đăng, Bình Phước",
    "phone": "0946256764",
    "latitude": 12.047216,
    "longitude": 106.913635
  },
  {
    "id": "C0241",
    "name": "Bùi Văn Cường",
    "address": "182 Phan Bội Châu, TP. Đồng Xoài, Bình Phước",
    "phone": "0944595785",
    "latitude": 12.024845,
    "longitude": 107.011835
  },
  {
    "id": "C0242",
    "name": "Nguyễn Văn Hải",
    "address": "1055 Điện Biên Phủ, Thị xã Phước Long, Bình Phước",
    "phone": "0995172115",
    "latitude": 12.015563,
    "longitude": 107.230796
  },
  {
    "id": "C0243",
    "name": "Lê Văn Nga",
    "address": "1224 Điện Biên Phủ, Huyện Chơn Thành, Bình Phước",
    "phone": "0913423590",
    "latitude": 12.142968,
    "longitude": 107.137727
  },
  {
    "id": "C0244",
    "name": "Đặng Văn Linh",
    "address": "1256 Điện Biên Phủ, Huyện Bù Đăng, Bình Phước",
    "phone": "0919602096",
    "latitude": 11.918278,
    "longitude": 106.86714
  },
  {
    "id": "C0245",
    "name": "Nguyễn Văn Minh",
    "address": "1437 Trần Hưng Đạo, Thị xã Bình Long, Bình Phước",
    "phone": "0998550361",
    "latitude": 11.892672,
    "longitude": 106.917476
  },
  {
    "id": "C0246",
    "name": "Đỗ Văn Bình",
    "address": "929 Nguyễn Huệ, Thị xã Phước Long, Bình Phước",
    "phone": "0997959840",
    "latitude": 11.673773,
    "longitude": 106.922125
  },
  {
    "id": "C0247",
    "name": "Phạm Văn Nga",
    "address": "880 Hùng Vương, Huyện Bù Đăng, Bình Phước",
    "phone": "0934030394",
    "latitude": 12.059598,
    "longitude": 107.177569
  },
  {
    "id": "C0248",
    "name": "Đặng Văn Phương",
    "address": "118 Nguyễn Huệ, Huyện Chơn Thành, Bình Phước",
    "phone": "0984328545",
    "latitude": 11.588682,
    "longitude": 107.021018
  },
  {
    "id": "C0249",
    "name": "Trần Văn Linh",
    "address": "218 30/4, Thị xã Bình Long, Bình Phước",
    "phone": "0940055373",
    "latitude": 11.601007,
    "longitude": 106.541396
  },
  {
    "id": "C0250",
    "name": "Đỗ Văn Linh",
    "address": "1324 Nguyễn Huệ, Thị xã Bình Long, Bình Phước",
    "phone": "0931819218",
    "latitude": 11.640851,
    "longitude": 106.931689
  },
  {
    "id": "C0251",
    "name": "Lê Văn Dung",
    "address": "380 Nguyễn Huệ, Thị xã Phước Long, Bình Phước",
    "phone": "0996313921",
    "latitude": 12.000479,
    "longitude": 107.304473
  },
  {
    "id": "C0252",
    "name": "Đỗ Văn Linh",
    "address": "1397 Phan Bội Châu, Huyện Chơn Thành, Bình Phước",
    "phone": "0918863501",
    "latitude": 11.109425,
    "longitude": 107.771631
  },
  {
    "id": "C0253",
    "name": "Nguyễn Văn Linh",
    "address": "992 Nguyễn Huệ, TP. Đồng Xoài, Bình Phước",
    "phone": "0919111143",
    "latitude": 11.820907,
    "longitude": 107.108652
  },
  {
    "id": "C0254",
    "name": "Nguyễn Văn Phương",
    "address": "186 Lê Lợi, Huyện Chơn Thành, Bình Phước",
    "phone": "0933060822",
    "latitude": 11.726955,
    "longitude": 107.028792
  },
  {
    "id": "C0255",
    "name": "Nguyễn Văn Bình",
    "address": "1027 Lý Thường Kiệt, Huyện Chơn Thành, Bình Phước",
    "phone": "0975682375",
    "latitude": 11.050367,
    "longitude": 107.749005
  },
  {
    "id": "C0256",
    "name": "Bùi Văn Hải",
    "address": "1382 Điện Biên Phủ, Huyện Chơn Thành, Bình Phước",
    "phone": "0960932171",
    "latitude": 12.095521,
    "longitude": 107.177067
  },
  {
    "id": "C0257",
    "name": "Đỗ Văn Linh",
    "address": "1182 Trần Hưng Đạo, Thị xã Bình Long, Bình Phước",
    "phone": "0964957989",
    "latitude": 12.029836,
    "longitude": 107.123067
  },
  {
    "id": "C0258",
    "name": "Lê Văn Dung",
    "address": "1036 Cách Mạng Tháng Tám, Thị xã Phước Long, Bình Phước",
    "phone": "0977524302",
    "latitude": 11.821360,
    "longitude": 106.550178
  },
  {
    "id": "C0259",
    "name": "Võ Văn Minh",
    "address": "673 Cách Mạng Tháng Tám, Huyện Chơn Thành, Bình Phước",
    "phone": "0954166470",
    "latitude": 12.03747,
    "longitude": 106.829086
  },
  {
    "id": "C0260",
    "name": "Phạm Văn An",
    "address": "529 Quang Trung, Thị xã Phước Long, Bình Phước",
    "phone": "0953210825",
    "latitude": 11.516245,
    "longitude": 106.881578
  },
  {
    "id": "C0261",
    "name": "Đỗ Văn Linh",
    "address": "915 Điện Biên Phủ, Thị xã Phước Long, Bình Phước",
    "phone": "0979096074",
    "latitude": 11.871878,
    "longitude": 106.666753
  },
  {
    "id": "C0262",
    "name": "Võ Văn Phương",
    "address": "1019 Lê Lợi, Huyện Bù Đăng, Bình Phước",
    "phone": "0962028407",
    "latitude": 11.501899,
    "longitude": 106.898081
  },
  {
    "id": "C0263",
    "name": "Đặng Văn Phương",
    "address": "1181 Lý Thường Kiệt, Huyện Chơn Thành, Bình Phước",
    "phone": "0941629707",
    "latitude": 11.085140,
    "longitude": 107.728956
  },
  {
    "id": "C0264",
    "name": "Lê Văn Phương",
    "address": "517 Cách Mạng Tháng Tám, Huyện Bù Đăng, Bình Phước",
    "phone": "0917949439",
    "latitude": 11.47604,
    "longitude": 106.846333
  },
  {
    "id": "C0265",
    "name": "Bùi Văn Phương",
    "address": "444 Trần Hưng Đạo, Thị xã Phước Long, Bình Phước",
    "phone": "0969322530",
    "latitude": 11.510412,
    "longitude": 106.846368
  },
  {
    "id": "C0266",
    "name": "Phạm Văn Phương",
    "address": "1157 Quang Trung, TP. Đồng Xoài, Bình Phước",
    "phone": "0910627810",
    "latitude": 12.036265,
    "longitude": 107.256771
  },
  {
    "id": "C0267",
    "name": "Đỗ Văn Bình",
    "address": "1165 Quang Trung, Thị xã Phước Long, Bình Phước",
    "phone": "0936813608",
    "latitude": 11.390715,
    "longitude":108.109844
  },
  {
    "id": "C0268",
    "name": "Phạm Văn Cường",
    "address": "870 Quang Trung, Huyện Hàm Thuận Bắc, Bình Thuận",
    "phone": "0962393123",
    "latitude": 11.24358,
    "longitude": 108.078276
  },
  {
    "id": "C0269",
    "name": "Huỳnh Văn Bình",
    "address": "1241 Hùng Vương, Huyện Bắc Bình, Bình Thuận",
    "phone": "0974842361",
    "latitude": 11.389619,
    "longitude": 108.052419
  },
  {
    "id": "C0270",
    "name": "Huỳnh Văn Bình",
    "address": "889 Lý Thường Kiệt, Huyện Tuy Phong, Bình Thuận",
    "phone": "0940000305",
    "latitude": 11.130985,
    "longitude": 108.296621
  },
  {
    "id": "C0271",
    "name": "Đỗ Văn Bình",
    "address": "959 Hùng Vương, Thị xã La Gi, Bình Thuận",
    "phone": "0946826052",
    "latitude": 10.704236,
    "longitude": 107.392405
  },
  {
    "id": "C0272",
    "name": "Đỗ Văn Bình",
    "address": "1247 Nguyễn Huệ, Huyện Bắc Bình, Bình Thuận",
    "phone": "0972188815",
    "latitude": 10.859592,
    "longitude": 107.910663
  },
  {
    "id": "C0273",
    "name": "Huỳnh Văn Dung",
    "address": "1035 Hùng Vương, Huyện Bắc Bình, Bình Thuận",
    "phone": "0945891894",
    "latitude": 10.958344,
    "longitude": 107.826513
  },
  {
    "id": "C0274",
    "name": "Trần Văn Phương",
    "address": "1158 Cách Mạng Tháng Tám, Huyện Tuy Phong, Bình Thuận",
    "phone": "0960194652",
    "latitude": 10.930884,
    "longitude": 108.024915
  },
  {
    "id": "C0275",
    "name": "Phạm Văn Hải",
    "address": "1067 30/4, Huyện Hàm Thuận Bắc, Bình Thuận",
    "phone": "0977219935",
    "latitude": 10.925157,
    "longitude": 107.953498
  },
  {
    "id": "C0276",
    "name": "Trần Văn Phương",
    "address": "411 Cách Mạng Tháng Tám, Huyện Hàm Thuận Bắc, Bình Thuận",
    "phone": "0961473175",
    "latitude": 10.860927,
    "longitude": 107.799624
  },
  {
    "id": "C0277",
    "name": "Bùi Văn Hải",
    "address": "249 Nguyễn Huệ, Thị xã La Gi, Bình Thuận",
    "phone": "0944037885",
    "latitude": 10.825097,
    "longitude": 107.843871
  },
  {
    "id": "C0278",
    "name": "Đặng Văn Linh",
    "address": "10 Trần Hưng Đạo, Huyện Bắc Bình, Bình Thuận",
    "phone": "0985017695",
    "latitude": 10.893470,
    "longitude": 107.668008
  },
  {
    "id": "C0279",
    "name": "Võ Văn Nga",
    "address": "570 30/4, Huyện Tuy Phong, Bình Thuận",
    "phone": "0948699323",
    "latitude": 11.260482,
    "longitude": 107.955309
  },
  {
    "id": "C0280",
    "name": "Lê Văn Nga",
    "address": "1041 30/4, TP. Phan Thiết, Bình Thuận",
    "phone": "0949155280",
    "latitude": 11.346188,
    "longitude": 108.275155
  },
  {
    "id": "C0281",
    "name": "Nguyễn Văn Nga",
    "address": "348 Hùng Vương, TP. Phan Thiết, Bình Thuận",
    "phone": "0953551793",
    "latitude": 10.764133,
    "longitude": 107.737973
  },
  {
    "id": "C0282",
    "name": "Huỳnh Văn Linh",
    "address": "556 Điện Biên Phủ, Huyện Bắc Bình, Bình Thuận",
    "phone": "0985465880",
    "latitude": 11.022192,
    "longitude": 108.103109
  },
  {
    "id": "C0283",
    "name": "Đỗ Văn Linh",
    "address": "365 30/4, TP. Phan Thiết, Bình Thuận",
    "phone": "0963528682",
    "latitude": 11.407908,
    "longitude": 108.094322
  },
  {
    "id": "C0284",
    "name": "Nguyễn Văn Nga",
    "address": "1182 Cách Mạng Tháng Tám, Huyện Bắc Bình, Bình Thuận",
    "phone": "0955133339",
    "latitude": 11.262806,
    "longitude": 107.97559
  },
  {
    "id": "C0285",
    "name": "Huỳnh Văn Phương",
    "address": "944 Điện Biên Phủ, TP. Phan Thiết, Bình Thuận",
    "phone": "0934691352",
    "latitude": 11.063485,
    "longitude": 108.293361
  },
  {
    "id": "C0286",
    "name": "Phạm Văn Bình",
    "address": "1281 Điện Biên Phủ, Huyện Tuy Phong, Bình Thuận",
    "phone": "0950308575",
    "latitude": 10.902902,
    "longitude": 107.960113
  },
  {
    "id": "C0287",
    "name": "Phạm Văn Linh",
    "address": "904 Cách Mạng Tháng Tám, Huyện Tuy Phong, Bình Thuận",
    "phone": "0941559796",
    "latitude": 10.844509,
    "longitude": 107.893518
  },
  {
    "id": "C0288",
    "name": "Lê Văn Linh",
    "address": "1046 Cách Mạng Tháng Tám, TP. Phan Thiết, Bình Thuận",
    "phone": "0911668140",
    "latitude": 10.86844,
    "longitude": 107.825081
  },
  {
    "id": "C0289",
    "name": "Đỗ Văn Phương",
    "address": "1431 Quang Trung, Huyện Tuy Phong, Bình Thuận",
    "phone": "0997447639",
    "latitude": 11.466144,
    "longitude": 108.177194
  },
  {
    "id": "C0290",
    "name": "Võ Văn Minh",
    "address": "271 Phan Bội Châu, Huyện Hàm Thuận Bắc, Bình Thuận",
    "phone": "0918397947",
    "latitude": 11.229648,
    "longitude": 108.08908
  },
  {
    "id": "C0291",
    "name": "Trần Văn An",
    "address": "177 Lê Lợi, Huyện Bắc Bình, Bình Thuận",
    "phone": "0943465540",
    "latitude": 11.059055,
    "longitude": 108.187973
  },
  {
    "id": "C0292",
    "name": "Bùi Văn Phương",
    "address": "722 Lê Lợi, Huyện Bắc Bình, Bình Thuận",
    "phone": "0999528669",
    "latitude": 11.102539,
    "longitude": 108.333975
  },
  {
    "id": "C0293",
    "name": "Đỗ Văn Hải",
    "address": "375 Lý Thường Kiệt, Huyện Bắc Bình, Bình Thuận",
    "phone": "0970966446",
    "latitude": 10.983323,
    "longitude": 107.888807
  },
  {
    "id": "C0294",
    "name": "Đặng Văn Minh",
    "address": "1255 Hùng Vương, Thị xã La Gi, Bình Thuận",
    "phone": "0975844529",
    "latitude": 11.055561,
    "longitude": 108.464586
  },
  {
    "id": "C0295",
    "name": "Võ Văn Linh",
    "address": "818 Điện Biên Phủ, Thị xã La Gi, Bình Thuận",
    "phone": "0911016923",
    "latitude": 11.102406,
    "longitude": 107.88316
  },
  {
    "id": "C0296",
    "name": "Lê Văn Bình",
    "address": "221 Lê Lợi, Huyện Tuy Phong, Bình Thuận",
    "phone": "0991569450",
    "latitude": 11.150722,
    "longitude": 108.345416
  },
  {
    "id": "C0297",
    "name": "Bùi Văn Nga",
    "address": "1281 Cách Mạng Tháng Tám, Huyện Tuy Phong, Bình Thuận",
    "phone": "0924711011",
    "latitude": 11.240713,
    "longitude": 108.032359
  },
  {
    "id": "C0298",
    "name": "Hoàng Văn Dung",
    "address": "311 Trần Hưng Đạo, Huyện Hàm Thuận Bắc, Bình Thuận",
    "phone": "0971537047",
    "latitude": 10.875053,
    "longitude": 107.820152
  },
  {
    "id": "C0299",
    "name": "Đặng Văn Dung",
    "address": "233 Cách Mạng Tháng Tám, Huyện Hàm Thuận Bắc, Bình Thuận",
    "phone": "0928619754",
    "latitude": 11.216135,
    "longitude": 108.38236
  },
  {
    "id": "C0300",
    "name": "Hoàng Văn Phương",
    "address": "590 Hùng Vương, Huyện Bắc Bình, Bình Thuận",
    "phone": "0958286447",
    "latitude": 11.194307,
    "longitude": 108.211243
  },
  {
    "id": "C0301",
    "name": "Huỳnh Văn Linh",
    "address": "767 Trần Hưng Đạo, TP. Phan Thiết, Bình Thuận",
    "phone": "0972056893",
    "latitude": 11.302775,
    "longitude": 107.662238
  },
  {
    "id": "C0302",
    "name": "Đỗ Văn Minh",
    "address": "1087 Nguyễn Huệ, Huyện Tuy Phong, Bình Thuận",
    "phone": "0978189382",
    "latitude": 10.83633,
    "longitude": 107.829406
  },
  {
    "id": "C0303",
    "name": "Huỳnh Văn Dung",
    "address": "994 Phan Bội Châu, TP. Phan Thiết, Bình Thuận",
    "phone": "0958088655",
    "latitude": 10.990748,
    "longitude": 108.333043
  },
  {
    "id": "C0304",
    "name": "Phạm Văn Minh",
    "address": "280 Nguyễn Huệ, TP. Phan Thiết, Bình Thuận",
    "phone": "0919378606",
    "latitude": 11.250241,
    "longitude": 108.061198
  },
  {
    "id": "C0305",
    "name": "Võ Văn Nga",
    "address": "1014 30/4, TP. Phan Thiết, Bình Thuận",
    "phone": "0956888423",
    "latitude": 11.41472,
    "longitude": 108.351926
  },
  {
    "id": "C0306",
    "name": "Hoàng Văn Cường",
    "address": "1056 Trần Hưng Đạo, Huyện Tuy Phong, Bình Thuận",
    "phone": "0936571777",
    "latitude": 10.943305,
    "longitude": 108.103693
  },
  {
    "id": "C0307",
    "name": "Nguyễn Văn Dung",
    "address": "1040 Lý Thường Kiệt, Huyện Tuy Phong, Bình Thuận",
    "phone": "0984063182",
    "latitude": 10.911826,
    "longitude": 107.562191
  },
  {
    "id": "C0308",
    "name": "Võ Văn Cường",
    "address": "600 Hùng Vương, Huyện Tuy Phong, Bình Thuận",
    "phone": "0920509114",
    "latitude": 11.200257,
    "longitude": 108.054881
  },
  {
    "id": "C0309",
    "name": "Lê Văn Cường",
    "address": "369 Phan Bội Châu, Huyện Bắc Bình, Bình Thuận",
    "phone": "0989907509",
    "latitude": 11.432675,
    "longitude": 108.362857
  },
  {
    "id": "C0310",
    "name": "Bùi Văn Nga",
    "address": "1415 Cách Mạng Tháng Tám, Huyện Hàm Thuận Bắc, Bình Thuận",
    "phone": "0968033343",
    "latitude": 11.02527,
    "longitude": 108.148863
  },
  {
    "id": "C0311",
    "name": "Nguyễn Văn Quân",
    "address": "744 Lý Thường Kiệt, TP. Phan Thiết, Bình Thuận",
    "phone": "0914881242",
    "latitude": 10.783928,
    "longitude": 107.785992
  },
  {
    "id": "C0312",
    "name": "Huỳnh Văn Cường",
    "address": "1423 Hùng Vương, Huyện Bắc Bình, Bình Thuận",
    "phone": "0983685922",
    "latitude": 11.416631,
    "longitude": 108.085306
  },
  {
    "id": "C0313",
    "name": "Huỳnh Văn An",
    "address": "1469 Lê Lợi, Huyện Bắc Bình, Bình Thuận",
    "phone": "0964859892",
    "latitude": 10.917991,
    "longitude": 107.81443
  },
  {
    "id": "C0314",
    "name": "Đỗ Văn Dung",
    "address": "626 30/4, Huyện Hàm Thuận Bắc, Bình Thuận",
    "phone": "0922413583",
    "latitude": 11.201968,
    "longitude": 108.19197
  },
  {
    "id": "C0315",
    "name": "Nguyễn Văn Phương",
    "address": "600 Trần Hưng Đạo, Huyện Hàm Thuận Bắc, Bình Thuận",
    "phone": "0989757943",
    "latitude": 11.153513,
    "longitude": 108.275166
  },
  {
    "id": "C0316",
    "name": "Lê Văn Minh",
    "address": "419 Quang Trung, Huyện Hàm Thuận Bắc, Bình Thuận",
    "phone": "0962240351",
    "latitude": 11.135572,
    "longitude": 108.208905
  },
  {
    "id": "C0317",
    "name": "Đỗ Văn Minh",
    "address": "1196 Phan Bội Châu, Huyện Tuy Phong, Bình Thuận",
    "phone": "0964985784",
    "latitude": 11.210723,
    "longitude": 108.069559
  },
  {
    "id": "C0318",
    "name": "Phạm Văn Cường",
    "address": "1243 Cách Mạng Tháng Tám, TP. Phan Thiết, Bình Thuận",
    "phone": "0947331522",
    "latitude": 11.067656,
    "longitude": 108.223805
  },
  {
    "id": "C0319",
    "name": "Phạm Văn Nga",
    "address": "1229 30/4, Huyện Hàm Thuận Bắc, Bình Thuận",
    "phone": "0919599836",
    "latitude": 11.197886,
    "longitude": 108.352358
  },
  {
    "id": "C0320",
    "name": "Lê Văn Linh",
    "address": "316 Phan Bội Châu, TP. Phan Thiết, Bình Thuận",
    "phone": "0985621612",
    "latitude": 10.972567,
    "longitude": 107.997435
  },
  {
    "id": "C0321",
    "name": "Phạm Văn Minh",
    "address": "143 Quang Trung, Thị xã La Gi, Bình Thuận",
    "phone": "0940019115",
    "latitude": 11.312629,
    "longitude": 108.17674
  },
  {
    "id": "C0322",
    "name": "Bùi Văn Phương",
    "address": "1307 Cách Mạng Tháng Tám, Huyện Hàm Thuận Bắc, Bình Thuận",
    "phone": "0910740434",
    "latitude": 10.99093,
    "longitude": 107.989392
  },
  {
    "id": "C0323",
    "name": "Nguyễn Văn Quân",
    "address": "231 Điện Biên Phủ, Thị xã La Gi, Bình Thuận",
    "phone": "0952612060",
    "latitude": 11.456807,
    "longitude": 108.238335
  },
  {
    "id": "C0324",
    "name": "Đặng Văn Bình",
    "address": "741 Lê Lợi, Huyện Tuy Phong, Bình Thuận",
    "phone": "0997140852",
    "latitude": 11.401785,
    "longitude": 108.041725
  },
  {
    "id": "C0325",
    "name": "Nguyễn Văn Quân",
    "address": "1187 Trần Hưng Đạo, TP. Phan Thiết, Bình Thuận",
    "phone": "0991240432",
    "latitude": 10.882005,
    "longitude": 107.908052
  },
  {
    "id": "C0326",
    "name": "Nguyễn Văn Phương",
    "address": "131 Cách Mạng Tháng Tám, Huyện Hàm Thuận Bắc, Bình Thuận",
    "phone": "0963457280",
    "latitude": 10.922015,
    "longitude": 108.2901
  },
  {
    "id": "C0327",
    "name": "Đỗ Văn An",
    "address": "582 Lý Thường Kiệt, Thị xã La Gi, Bình Thuận",
    "phone": "0955754383",
    "latitude": 11.099559,
    "longitude": 108.340522
  },
  {
    "id": "C0328",
    "name": "Bùi Văn Hải",
    "address": "240 Trần Hưng Đạo, Huyện Hàm Thuận Bắc, Bình Thuận",
    "phone": "0958526385",
    "latitude": 11.064726,
    "longitude": 108.449761
  },
  {
    "id": "C0329",
    "name": "Bùi Văn Quân",
    "address": "935 Trần Hưng Đạo, Huyện Bắc Bình, Bình Thuận",
    "phone": "0922861594",
    "latitude": 11.171557,
    "longitude": 108.390755
  },
  {
    "id": "C0330",
    "name": "Lê Văn Quân",
    "address": "1316 Cách Mạng Tháng Tám, TP. Phan Thiết, Bình Thuận",
    "phone": "0978321033",
    "latitude": 10.758574,
    "longitude": 107.711330
  },
  {
    "id": "C0331",
    "name": "Nguyễn Văn Nga",
    "address": "229 Nguyễn Huệ, Thị xã La Gi, Bình Thuận",
    "phone": "0992313857",
    "latitude": 11.162168,
    "longitude": 107.890108
  },
  {
    "id": "C0332",
    "name": "Đỗ Văn Cường",
    "address": "800 Lý Thường Kiệt, Huyện Bắc Bình, Bình Thuận",
    "phone": "0970476721",
    "latitude": 10.941471,
    "longitude": 107.916671
  },
  {
    "id": "C0333",
    "name": "Đặng Văn Phương",
    "address": "888 30/4, TP. Phan Thiết, Bình Thuận",
    "phone": "0962736090",
    "latitude": 11.466483,
    "longitude": 108.124907
  },
  {
    "id": "C0334",
    "name": "Đặng Văn Phương",
    "address": "426 30/4, Thị xã La Gi, Bình Thuận",
    "phone": "0975703514",
    "latitude": 11.264313,
    "longitude": 107.999587
  },
  {
    "id": "C0335",
    "name": "Hoàng Văn Cường",
    "address": "1320 Điện Biên Phủ, Huyện Hàm Thuận Bắc, Bình Thuận",
    "phone": "0994138735",
    "latitude": 11.483419,
    "longitude": 108.229217
  },
  {
    "id": "C0336",
    "name": "Huỳnh Văn Phương",
    "address": "1054 30/4, Thị xã La Gi, Bình Thuận",
    "phone": "0989811327",
    "latitude": 11.206657,
    "longitude": 107.913152
  },
  {
    "id": "C0337",
    "name": "Võ Văn An",
    "address": "347 Điện Biên Phủ, Huyện Hàm Thuận Bắc, Bình Thuận",
    "phone": "0993914455",
    "latitude": 11.184451,
    "longitude": 108.261305
  },
  {
    "id": "C0338",
    "name": "Trần Văn Quân",
    "address": "1055 Trần Hưng Đạo, Huyện Tuy Phong, Bình Thuận",
    "phone": "0937868409",
    "latitude": 10.804753,
    "longitude": 107.594268
  },
  {
    "id": "C0339",
    "name": "Nguyễn Văn Linh",
    "address": "784 Quang Trung, Thị xã La Gi, Bình Thuận",
    "phone": "0997246349",
    "latitude": 11.372146,
    "longitude": 108.076089
  },
  {
    "id": "C0340",
    "name": "Đặng Văn Phương",
    "address": "1203 30/4, TP. Phan Thiết, Bình Thuận",
    "phone": "0964519827",
    "latitude": 11.339346,
    "longitude": 108.378662
  },
  {
    "id": "C0341",
    "name": "Trần Văn Minh",
    "address": "1375 Phan Bội Châu, Huyện Bắc Bình, Bình Thuận",
    "phone": "0939004995",
    "latitude": 11.020732,
    "longitude": 108.009812
  },
  {
    "id": "C0342",
    "name": "Hoàng Văn Linh",
    "address": "1227 Lý Thường Kiệt, Huyện Tuy Phong, Bình Thuận",
    "phone": "0936174350",
    "latitude": 10.790266,
    "longitude": 107.552789
  },
  {
    "id": "C0343",
    "name": "Hoàng Văn Phương",
    "address": "1125 30/4, Huyện Bắc Bình, Bình Thuận",
    "phone": "0917750324",
    "latitude": 11.166876,
    "longitude": 107.951542
  },
  {
    "id": "C0344",
    "name": "Bùi Văn Quân",
    "address": "608 Nguyễn Huệ, Huyện Bắc Bình, Bình Thuận",
    "phone": "0944065066",
    "latitude": 11.285024,
    "longitude": 108.353025
  },
  {
    "id": "C0345",
    "name": "Lê Văn Bình",
    "address": "1222 Phan Bội Châu, TP. Phan Thiết, Bình Thuận",
    "phone": "0971149602",
    "latitude": 11.335083,
    "longitude": 108.213438
  },
  {
    "id": "C0346",
    "name": "Phạm Văn Dung",
    "address": "1167 Lê Lợi, Huyện Tuy Phong, Bình Thuận",
    "phone": "0924190729",
    "latitude": 11.414318,
    "longitude": 108.099291
  },
  {
    "id": "C0347",
    "name": "Lê Văn Hải",
    "address": "1139 Phan Bội Châu, Huyện Bắc Bình, Bình Thuận",
    "phone": "0910819937",
    "latitude": 11.374398,
    "longitude": 108.196905
  },
  {
    "id": "C0348",
    "name": "Huỳnh Văn Cường",
    "address": "1362 Lê Lợi, TP. Phan Thiết, Bình Thuận",
    "phone": "0921189271",
    "latitude": 10.969845,
    "longitude": 107.862677
  },
  {
    "id": "C0349",
    "name": "Võ Văn Hải",
    "address": "838 Quang Trung, Huyện Bắc Bình, Bình Thuận",
    "phone": "0925376501",
    "latitude": 10.717821,
    "longitude": 107.384109
  },
  {
    "id": "C0350",
    "name": "Lê Văn Cường",
    "address": "1365 Trần Hưng Đạo, Huyện Bắc Bình, Bình Thuận",
    "phone": "0992825588",
    "latitude": 10.444703,
    "longitude": 107.288194
  },
  {
    "id": "C0351",
    "name": "Đặng Văn Hải",
    "address": "1073 Cách Mạng Tháng Tám, Huyện Hàm Thuận Bắc, Bình Thuận",
    "phone": "0996662748",
    "latitude": 11.164333,
    "longitude": 108.070344
  },
  {
    "id": "C0352",
    "name": "Phạm Văn Linh",
    "address": "449 Nguyễn Huệ, Huyện Bắc Bình, Bình Thuận",
    "phone": "0929849580",
    "latitude": 10.643547,
    "longitude": 107.745435
  },
  {
    "id": "C0353",
    "name": "Nguyễn Văn An",
    "address": "229 Quang Trung, Huyện Bắc Bình, Bình Thuận",
    "phone": "0963675516",
    "latitude": 11.435573,
    "longitude": 108.376033
  },
  {
    "id": "C0354",
    "name": "Bùi Văn Phương",
    "address": "356 Điện Biên Phủ, Thị xã La Gi, Bình Thuận",
    "phone": "0970136134",
    "latitude": 11.347111,
    "longitude": 108.222518
  },
  {
    "id": "C0355",
    "name": "Nguyễn Văn Quân",
    "address": "144 30/4, Huyện Hàm Thuận Bắc, Bình Thuận",
    "phone": "0921845772",
    "latitude": 11.041669,
    "longitude": 107.923688
  },
  {
    "id": "C0356",
    "name": "Hoàng Văn Minh",
    "address": "560 Lê Lợi, Huyện Tuy Phong, Bình Thuận",
    "phone": "0912971822",
    "latitude": 11.046322,
    "longitude": 108.352697
  },
  {
    "id": "C0357",
    "name": "Đặng Văn Minh",
    "address": "850 Lý Thường Kiệt, TP. Long Khánh, Đồng Nai",
    "phone": "0932144694",
    "latitude": 10.927823,
    "longitude": 107.208246
  },
  {
    "id": "C0358",
    "name": "Huỳnh Văn Quân",
    "address": "18 Lý Thường Kiệt, Huyện Long Thành, Đồng Nai",
    "phone": "0972784572",
    "latitude": 11.426727,
    "longitude": 107.253989
  },
  {
    "id": "C0359",
    "name": "Hoàng Văn Minh",
    "address": "504 Phan Bội Châu, Huyện Long Thành, Đồng Nai",
    "phone": "0948318982",
    "latitude": 10.864924,
    "longitude": 107.274269
  },
  {
    "id": "C0360",
    "name": "Đặng Văn Nga",
    "address": "320 Điện Biên Phủ, TP. Long Khánh, Đồng Nai",
    "phone": "0958779064",
    "latitude": 10.877063,
    "longitude": 106.899827
  },
  {
    "id": "C0361",
    "name": "Nguyễn Văn Phương",
    "address": "1364 30/4, Huyện Nhơn Trạch, Đồng Nai",
    "phone": "0970512932",
    "latitude": 11.256032,
    "longitude": 107.140562
  },
  {
    "id": "C0362",
    "name": "Võ Văn Hải",
    "address": "1134 Hùng Vương, TP. Biên Hòa, Đồng Nai",
    "phone": "0926502464",
    "latitude": 11.327548,
    "longitude": 106.977318
  },
  {
    "id": "C0363",
    "name": "Nguyễn Văn Quân",
    "address": "348 Cách Mạng Tháng Tám, TP. Biên Hòa, Đồng Nai",
    "phone": "0964381386",
    "latitude": 10.970791,
    "longitude": 107.277928
  },
  {
    "id": "C0364",
    "name": "Đặng Văn Dung",
    "address": "709 Quang Trung, Huyện Long Thành, Đồng Nai",
    "phone": "0973867794",
    "latitude": 11.276831,
    "longitude": 107.30414
  },
  {
    "id": "C0365",
    "name": "Nguyễn Văn Bình",
    "address": "1338 30/4, Huyện Long Thành, Đồng Nai",
    "phone": "0936335291",
    "latitude": 11.02769,
    "longitude": 107.035027
  },
  {
    "id": "C0366",
    "name": "Nguyễn Văn Dung",
    "address": "1020 Lý Thường Kiệt, Huyện Nhơn Trạch, Đồng Nai",
    "phone": "0956319088",
    "latitude": 11.349547,
    "longitude": 107.225826
  },
  {
    "id": "C0367",
    "name": "Phạm Văn Dung",
    "address": "742 Phan Bội Châu, TP. Long Khánh, Đồng Nai",
    "phone": "0982902329",
    "latitude": 11.248415,
    "longitude": 107.31153
  },
  {
    "id": "C0368",
    "name": "Võ Văn Minh",
    "address": "360 Quang Trung, Huyện Trảng Bom, Đồng Nai",
    "phone": "0979374684",
    "latitude": 11.363136,
    "longitude": 107.13767
  },
  {
    "id": "C0369",
    "name": "Hoàng Văn An",
    "address": "370 Nguyễn Huệ, TP. Long Khánh, Đồng Nai",
    "phone": "0913215344",
    "latitude": 10.981002,
    "longitude": 107.235694
  },
  {
    "id": "C0370",
    "name": "Lê Văn Phương",
    "address": "919 Điện Biên Phủ, Huyện Trảng Bom, Đồng Nai",
    "phone": "0969753125",
    "latitude": 11.148357,
    "longitude": 107.400345
  },
  {
    "id": "C0371",
    "name": "Lê Văn Nga",
    "address": "970 Nguyễn Huệ, Huyện Long Thành, Đồng Nai",
    "phone": "0941872332",
    "latitude": 10.750628,
    "longitude": 106.974725
  },
  {
    "id": "C0372",
    "name": "Võ Văn An",
    "address": "1287 Điện Biên Phủ, Huyện Trảng Bom, Đồng Nai",
    "phone": "0999478004",
    "latitude": 11.187377,
    "longitude": 107.481265
  },
  {
    "id": "C0373",
    "name": "Hoàng Văn An",
    "address": "1491 Cách Mạng Tháng Tám, TP. Long Khánh, Đồng Nai",
    "phone": "0977040300",
    "latitude": 11.005688,
    "longitude": 106.982988
  },
  {
    "id": "C0374",
    "name": "Nguyễn Văn Nga",
    "address": "1180 Lê Lợi, TP. Long Khánh, Đồng Nai",
    "phone": "0942352781",
    "latitude": 11.23602,
    "longitude": 106.94023
  },
  {
    "id": "C0375",
    "name": "Hoàng Văn Nga",
    "address": "1435 Quang Trung, Huyện Nhơn Trạch, Đồng Nai",
    "phone": "0971883050",
    "latitude": 10.95008,
    "longitude": 107.077979
  },
  {
    "id": "C0376",
    "name": "Hoàng Văn Hải",
    "address": "755 30/4, TP. Long Khánh, Đồng Nai",
    "phone": "0911524907",
    "latitude": 11.209757,
    "longitude": 107.486321
  },
  {
    "id": "C0377",
    "name": "Bùi Văn Minh",
    "address": "660 30/4, Huyện Nhơn Trạch, Đồng Nai",
    "phone": "0999462681",
    "latitude": 11.109815,
    "longitude": 107.173312
  },
  {
    "id": "C0378",
    "name": "Hoàng Văn Dung",
    "address": "177 Cách Mạng Tháng Tám, Huyện Nhơn Trạch, Đồng Nai",
    "phone": "0921931339",
    "latitude": 11.101696,
    "longitude": 107.183937
  },
  {
    "id": "C0379",
    "name": "Huỳnh Văn Minh",
    "address": "418 30/4, Huyện Trảng Bom, Đồng Nai",
    "phone": "0993892260",
    "latitude": 10.941814,
    "longitude": 107.349739
  },
  {
    "id": "C0380",
    "name": "Đặng Văn Linh",
    "address": "1372 Quang Trung, TP. Biên Hòa, Đồng Nai",
    "phone": "0946981504",
    "latitude": 11.153603,
    "longitude": 107.360659
  },
  {
    "id": "C0381",
    "name": "Hoàng Văn Nga",
    "address": "770 Lê Lợi, Huyện Trảng Bom, Đồng Nai",
    "phone": "0991388811",
    "latitude": 10.825661,
    "longitude": 107.033989
  },
  {
    "id": "C0382",
    "name": "Hoàng Văn Quân",
    "address": "651 Hùng Vương, Huyện Trảng Bom, Đồng Nai",
    "phone": "0923265806",
    "latitude": 10.977612,
    "longitude": 107.157303
  },
  {
    "id": "C0383",
    "name": "Phạm Văn An",
    "address": "927 Lê Lợi, Huyện Nhơn Trạch, Đồng Nai",
    "phone": "0965500807",
    "latitude": 11.005331,
    "longitude": 107.074817
  },
  {
    "id": "C0384",
    "name": "Đặng Văn Dung",
    "address": "1461 Quang Trung, TP. Long Khánh, Đồng Nai",
    "phone": "0950536896",
    "latitude": 11.261893,
    "longitude": 107.129728
  },
  {
    "id": "C0385",
    "name": "Đặng Văn Nga",
    "address": "4 Quang Trung, Huyện Long Thành, Đồng Nai",
    "phone": "0948493024",
    "latitude": 11.383251,
    "longitude": 107.45464
  },
  {
    "id": "C0386",
    "name": "Đỗ Văn Minh",
    "address": "252 Hùng Vương, Huyện Long Thành, Đồng Nai",
    "phone": "0919268117",
    "latitude": 11.465115,
    "longitude": 107.327845
  },
  {
    "id": "C0387",
    "name": "Phạm Văn Hải",
    "address": "3 Lê Lợi, Huyện Long Thành, Đồng Nai",
    "phone": "0982727189",
    "latitude": 11.209672,
    "longitude": 107.306392
  },
  {
    "id": "C0388",
    "name": "Lê Văn Hải",
    "address": "956 30/4, TP. Long Khánh, Đồng Nai",
    "phone": "0939040828",
    "latitude": 11.160718,
    "longitude": 107.360583
  },
  {
    "id": "C0389",
    "name": "Trần Văn Cường",
    "address": "563 Lý Thường Kiệt, Huyện Long Thành, Đồng Nai",
    "phone": "0929825842",
    "latitude": 11.04519,
    "longitude": 107.335534
  },
  {
    "id": "C0390",
    "name": "Hoàng Văn Dung",
    "address": "344 30/4, Huyện Trảng Bom, Đồng Nai",
    "phone": "0952049260",
    "latitude": 11.021051,
    "longitude": 107.281212
  },
  {
    "id": "C0391",
    "name": "Võ Văn Quân",
    "address": "1220 Cách Mạng Tháng Tám, Huyện Trảng Bom, Đồng Nai",
    "phone": "0939130640",
    "latitude": 11.064082,
    "longitude": 106.978937
  },
  {
    "id": "C0392",
    "name": "Đỗ Văn Dung",
    "address": "977 Phan Bội Châu, Huyện Nhơn Trạch, Đồng Nai",
    "phone": "0951294215",
    "latitude": 10.881845,
    "longitude": 106.952598
  },
  {
    "id": "C0393",
    "name": "Bùi Văn Linh",
    "address": "747 Quang Trung, Huyện Nhơn Trạch, Đồng Nai",
    "phone": "0943075565",
    "latitude": 11.243733,
    "longitude": 107.120499
  },
  {
    "id": "C0394",
    "name": "Phạm Văn Linh",
    "address": "797 Cách Mạng Tháng Tám, Huyện Trảng Bom, Đồng Nai",
    "phone": "0985052116",
    "latitude": 10.764651,
    "longitude": 107.032197
  },
  {
    "id": "C0395",
    "name": "Huỳnh Văn Minh",
    "address": "622 Cách Mạng Tháng Tám, TP. Long Khánh, Đồng Nai",
    "phone": "0999831544",
    "latitude": 11.274757,
    "longitude": 107.229729
  },
  {
    "id": "C0396",
    "name": "Đỗ Văn Minh",
    "address": "692 Lý Thường Kiệt, TP. Long Khánh, Đồng Nai",
    "phone": "0935116039",
    "latitude": 10.994324,
    "longitude": 107.378617
  },
  {
    "id": "C0397",
    "name": "Huỳnh Văn Dung",
    "address": "397 Nguyễn Huệ, TP. Long Khánh, Đồng Nai",
    "phone": "0911319909",
    "latitude": 11.127325,
    "longitude": 107.45064
  },
  {
    "id": "C0398",
    "name": "Võ Văn Dung",
    "address": "703 Phan Bội Châu, TP. Long Khánh, Đồng Nai",
    "phone": "0910721681",
    "latitude": 10.839838,
    "longitude": 107.276906
  },
  {
    "id": "C0399",
    "name": "Hoàng Văn An",
    "address": "1466 Cách Mạng Tháng Tám, Huyện Long Thành, Đồng Nai",
    "phone": "0989422946",
    "latitude": 11.337535,
    "longitude": 107.429331
  },
  {
    "id": "C0400",
    "name": "Võ Văn Hải",
    "address": "448 Nguyễn Huệ, TP. Biên Hòa, Đồng Nai",
    "phone": "0918132588",
    "latitude": 11.478888,
    "longitude": 107.243771
  },
  {
    "id": "C0401",
    "name": "Trần Văn Nga",
    "address": "278 Phan Bội Châu, Huyện Long Thành, Đồng Nai",
    "phone": "0933300667",
    "latitude": 11.002873,
    "longitude": 106.927712
  },
  {
    "id": "C0402",
    "name": "Võ Văn Nga",
    "address": "1350 Phan Bội Châu, Huyện Long Thành, Đồng Nai",
    "phone": "0986817927",
    "latitude": 11.159598,
    "longitude": 107.173578
  },
  {
    "id": "C0403",
    "name": "Lê Văn Linh",
    "address": "1428 Nguyễn Huệ, Huyện Trảng Bom, Đồng Nai",
    "phone": "0945167351",
    "latitude": 11.342264,
    "longitude": 107.143496
  },
  {
    "id": "C0404",
    "name": "Trần Văn Minh",
    "address": "1240 Lý Thường Kiệt, TP. Biên Hòa, Đồng Nai",
    "phone": "0926771097",
    "latitude": 10.849892,
    "longitude": 107.235238
  },
  {
    "id": "C0405",
    "name": "Lê Văn Cường",
    "address": "674 Phan Bội Châu, Huyện Trảng Bom, Đồng Nai",
    "phone": "0911526967",
    "latitude": 10.896181,
    "longitude": 107.222598
  },
  {
    "id": "C0406",
    "name": "Lê Văn Hải",
    "address": "1126 30/4, Huyện Long Thành, Đồng Nai",
    "phone": "0956347877",
    "latitude": 10.985691,
    "longitude": 107.227912
  },
  {
    "id": "C0407",
    "name": "Đặng Văn Phương",
    "address": "1486 Nguyễn Huệ, TP. Biên Hòa, Đồng Nai",
    "phone": "0938487501",
    "latitude": 10.782234,
    "longitude": 106.94792
  },
  {
    "id": "C0408",
    "name": "Bùi Văn Nga",
    "address": "1347 30/4, Huyện Long Thành, Đồng Nai",
    "phone": "0936932746",
    "latitude": 10.999908,
    "longitude": 107.240879
  },
  {
    "id": "C0409",
    "name": "Huỳnh Văn Minh",
    "address": "1443 Nguyễn Huệ, Huyện Long Thành, Đồng Nai",
    "phone": "0930092317",
    "latitude": 11.027647,
    "longitude": 107.349363
  },
  {
    "id": "C0410",
    "name": "Huỳnh Văn Nga",
    "address": "277 Cách Mạng Tháng Tám, Huyện Nhơn Trạch, Đồng Nai",
    "phone": "0986101446",
    "latitude": 11.339172,
    "longitude": 107.206981
  },
  {
    "id": "C0411",
    "name": "Đặng Văn Cường",
    "address": "719 Phan Bội Châu, Huyện Long Thành, Đồng Nai",
    "phone": "0945489657",
    "latitude": 10.996248,
    "longitude": 107.395171
  },
  {
    "id": "C0412",
    "name": "Võ Văn Hải",
    "address": "7 Lý Thường Kiệt, TP. Long Khánh, Đồng Nai",
    "phone": "0970000823",
    "latitude": 11.170527,
    "longitude": 107.168921
  },
  {
    "id": "C0413",
    "name": "Trần Văn Quân",
    "address": "1419 Lý Thường Kiệt, Huyện Long Thành, Đồng Nai",
    "phone": "0942876860",
    "latitude": 11.379424,
    "longitude": 107.001105
  },
  {
    "id": "C0414",
    "name": "Trần Văn Bình",
    "address": "540 30/4, TP. Long Khánh, Đồng Nai",
    "phone": "0944760281",
    "latitude": 11.324738,
    "longitude": 107.071604
  },
  {
    "id": "C0415",
    "name": "Đặng Văn An",
    "address": "1425 Lý Thường Kiệt, Huyện Long Thành, Đồng Nai",
    "phone": "0980863532",
    "latitude": 10.839558,
    "longitude": 106.985781
  },
  {
    "id": "C0416",
    "name": "Nguyễn Văn Cường",
    "address": "138 Phan Bội Châu, Huyện Nhơn Trạch, Đồng Nai",
    "phone": "0953745456",
    "latitude": 10.902037,
    "longitude": 107.081518
  },
  {
    "id": "C0417",
    "name": "Hoàng Văn Linh",
    "address": "610 Cách Mạng Tháng Tám, TP. Biên Hòa, Đồng Nai",
    "phone": "0997868271",
    "latitude": 11.040961,
    "longitude": 107.037152
  },
  {
    "id": "C0418",
    "name": "Đặng Văn Minh",
    "address": "485 Lê Lợi, TP. Biên Hòa, Đồng Nai",
    "phone": "0945476201",
    "latitude": 10.972633,
    "longitude": 107.076914
  },
  {
    "id": "C0419",
    "name": "Trần Văn Cường",
    "address": "124 Điện Biên Phủ, TP. Biên Hòa, Đồng Nai",
    "phone": "0984869400",
    "latitude": 11.02518,
    "longitude": 107.329469
  },
  {
    "id": "C0420",
    "name": "Phạm Văn Bình",
    "address": "1464 Trần Hưng Đạo, TP. Biên Hòa, Đồng Nai",
    "phone": "0997796701",
    "latitude": 11.317203,
    "longitude": 107.225482
  },
  {
    "id": "C0421",
    "name": "Đặng Văn Minh",
    "address": "96 Trần Hưng Đạo, TP. Long Khánh, Đồng Nai",
    "phone": "0931487408",
    "latitude": 10.85527,
    "longitude": 107.089873
  },
  {
    "id": "C0422",
    "name": "Huỳnh Văn Minh",
    "address": "634 Cách Mạng Tháng Tám, TP. Biên Hòa, Đồng Nai",
    "phone": "0933549125",
    "latitude": 10.885294,
    "longitude": 107.171691
  },
  {
    "id": "C0423",
    "name": "Huỳnh Văn Minh",
    "address": "749 30/4, Huyện Trảng Bom, Đồng Nai",
    "phone": "0980575374",
    "latitude": 11.28045,
    "longitude": 107.207384
  },
  {
    "id": "C0424",
    "name": "Trần Văn Nga",
    "address": "575 Cách Mạng Tháng Tám, Huyện Nhơn Trạch, Đồng Nai",
    "phone": "0989366741",
    "latitude": 11.112875,
    "longitude": 106.925078
  },
  {
    "id": "C0425",
    "name": "Đặng Văn Phương",
    "address": "448 Hùng Vương, Huyện Nhơn Trạch, Đồng Nai",
    "phone": "0917206238",
    "latitude": 10.961648,
    "longitude": 106.903157
  },
  {
    "id": "C0426",
    "name": "Phạm Văn Linh",
    "address": "156 Điện Biên Phủ, TP. Long Khánh, Đồng Nai",
    "phone": "0938696198",
    "latitude": 11.486994,
    "longitude": 107.139167
  },
  {
    "id": "C0427",
    "name": "Phạm Văn Linh",
    "address": "231 Trần Hưng Đạo, TP. Biên Hòa, Đồng Nai",
    "phone": "0954535924",
    "latitude": 11.2646,
    "longitude": 107.264874
  },
  {
    "id": "C0428",
    "name": "Trần Văn Nga",
    "address": "1325 Lê Lợi, Huyện Nhơn Trạch, Đồng Nai",
    "phone": "0994134663",
    "latitude": 10.912096,
    "longitude": 107.261039
  },
  {
    "id": "C0429",
    "name": "Lê Văn Hải",
    "address": "508 Lý Thường Kiệt, Huyện Nhơn Trạch, Đồng Nai",
    "phone": "0963791318",
    "latitude": 10.80957,
    "longitude": 107.24522
  },
  {
    "id": "C0430",
    "name": "Nguyễn Văn Phương",
    "address": "243 Cách Mạng Tháng Tám, Huyện Trảng Bom, Đồng Nai",
    "phone": "0975133832",
    "latitude": 11.024816,
    "longitude": 107.154023
  },
  {
    "id": "C0431",
    "name": "Nguyễn Văn An",
    "address": "56 Nguyễn Huệ, Huyện Nhơn Trạch, Đồng Nai",
    "phone": "0952893803",
    "latitude": 11.220746,
    "longitude": 107.21051
  },
  {
    "id": "C0432",
    "name": "Võ Văn Bình",
    "address": "89 Quang Trung, TP. Long Khánh, Đồng Nai",
    "phone": "0912276411",
    "latitude": 11.387512,
    "longitude": 107.404678
  },
  {
    "id": "C0433",
    "name": "Trần Văn An",
    "address": "194 Nguyễn Huệ, TP. Biên Hòa, Đồng Nai",
    "phone": "0939479574",
    "latitude": 11.232902,
    "longitude": 107.031624
  },
  {
    "id": "C0434",
    "name": "Đặng Văn Linh",
    "address": "37 Hùng Vương, Huyện Trảng Bom, Đồng Nai",
    "phone": "0912478303",
    "latitude": 11.380653,
    "longitude": 107.023459
  },
  {
    "id": "C0435",
    "name": "Huỳnh Văn Nga",
    "address": "542 Nguyễn Huệ, TP. Biên Hòa, Đồng Nai",
    "phone": "0966606669",
    "latitude": 10.998258,
    "longitude": 107.23795
  },
  {
    "id": "C0436",
    "name": "Đặng Văn Cường",
    "address": "378 Cách Mạng Tháng Tám, Huyện Trảng Bom, Đồng Nai",
    "phone": "0972750928",
    "latitude": 10.930609,
    "longitude": 106.914483
  },
  {
    "id": "C0437",
    "name": "Trần Văn Bình",
    "address": "705 Hùng Vương, Huyện Nhơn Trạch, Đồng Nai",
    "phone": "0934144684",
    "latitude": 11.426868,
    "longitude": 107.312462
  },
  {
    "id": "C0438",
    "name": "Lê Văn An",
    "address": "1448 Lý Thường Kiệt, Huyện Long Thành, Đồng Nai",
    "phone": "0938050581",
    "latitude": 10.814032,
    "longitude": 107.259288
  },
  {
    "id": "C0439",
    "name": "Huỳnh Văn Minh",
    "address": "1320 30/4, Huyện Nhơn Trạch, Đồng Nai",
    "phone": "0959195224",
    "latitude": 11.273547,
    "longitude": 107.430973
  },
  {
    "id": "C0440",
    "name": "Đỗ Văn Minh",
    "address": "1005 Nguyễn Huệ, Huyện Long Thành, Đồng Nai",
    "phone": "0927490248",
    "latitude": 10.931738,
    "longitude": 107.052307
  },
  {
    "id": "C0441",
    "name": "Phạm Văn Hải",
    "address": "1212 30/4, Huyện Long Thành, Đồng Nai",
    "phone": "0946696071",
    "latitude": 10.882693,
    "longitude": 107.087684
  },
  {
    "id": "C0442",
    "name": "Trần Văn Nga",
    "address": "754 Cách Mạng Tháng Tám, TP. Biên Hòa, Đồng Nai",
    "phone": "0944451885",
    "latitude": 11.329005,
    "longitude": 106.976782
  },
  {
    "id": "C0443",
    "name": "Trần Văn Phương",
    "address": "1386 Phan Bội Châu, TP. Biên Hòa, Đồng Nai",
    "phone": "0943683140",
    "latitude": 10.888035,
    "longitude": 106.934465
  },
  {
    "id": "C0444",
    "name": "Bùi Văn Nga",
    "address": "1163 Điện Biên Phủ, TP. Long Khánh, Đồng Nai",
    "phone": "0924489395",
    "latitude": 11.120243,
    "longitude": 107.029253
  },
  {
    "id": "C0445",
    "name": "Phạm Văn Dung",
    "address": "1021 Trần Hưng Đạo, TP. Long Khánh, Đồng Nai",
    "phone": "0950445071",
    "latitude": 11.168209,
    "longitude": 107.4207
  },
  {
    "id": "C0446",
    "name": "Đỗ Văn Bình",
    "address": "153 30/4, Quận 3, TP. Hồ Chí Minh",
    "phone": "0969023477",
    "latitude": 10.754931,
    "longitude": 106.750076
  },
  {
    "id": "C0447",
    "name": "Đỗ Văn An",
    "address": "23 Hùng Vương, Huyện Bình Chánh, TP. Hồ Chí Minh",
    "phone": "0920422238",
    "latitude": 10.840546,
    "longitude": 106.8163
  },
  {
    "id": "C0448",
    "name": "Nguyễn Văn Phương",
    "address": "550 Điện Biên Phủ, Quận Gò Vấp, TP. Hồ Chí Minh",
    "phone": "0937245811",
    "latitude": 10.801393,
    "longitude": 106.632007
  },
  {
    "id": "C0449",
    "name": "Hoàng Văn Phương",
    "address": "332 Phan Bội Châu, Huyện Bình Chánh, TP. Hồ Chí Minh",
    "phone": "0990718618",
    "latitude": 10.928391,
    "longitude": 106.521577
  },
  {
    "id": "C0450",
    "name": "Đặng Văn Dung",
    "address": "734 Trần Hưng Đạo, Quận 3, TP. Hồ Chí Minh",
    "phone": "0940075547",
    "latitude": 10.804681,
    "longitude": 106.88287
  },
  {
    "id": "C0451",
    "name": "Bùi Văn Cường",
    "address": "418 Phan Bội Châu, Huyện Bình Chánh, TP. Hồ Chí Minh",
    "phone": "0948354409",
    "latitude": 10.722403,
    "longitude": 106.947413
  },
  {
    "id": "C0452",
    "name": "Đặng Văn Minh",
    "address": "784 Điện Biên Phủ, Quận 1, TP. Hồ Chí Minh",
    "phone": "0924609844",
    "latitude": 10.99119,
    "longitude": 106.565155
  },
  {
    "id": "C0453",
    "name": "Phạm Văn Dung",
    "address": "1341 Quang Trung, Huyện Củ Chi, TP. Hồ Chí Minh",
    "phone": "0948357736",
    "latitude": 10.660627,
    "longitude": 106.793694
  },
  {
    "id": "C0454",
    "name": "Trần Văn Cường",
    "address": "998 Phan Bội Châu, Huyện Củ Chi, TP. Hồ Chí Minh",
    "phone": "0919680517",
    "latitude": 10.915074,
    "longitude": 106.855997
  },
  {
    "id": "C0455",
    "name": "Phạm Văn Quân",
    "address": "197 Hùng Vương, TP. Thủ Đức, TP. Hồ Chí Minh",
    "phone": "0942121480",
    "latitude": 10.967488,
    "longitude": 106.701396
  },
  {
    "id": "C0456",
    "name": "Hoàng Văn Linh",
    "address": "201 Lê Lợi, Quận 1, TP. Hồ Chí Minh",
    "phone": "0970679109",
    "latitude": 10.671783,
    "longitude": 106.734731
  },
  {
    "id": "C0457",
    "name": "Hoàng Văn Nga",
    "address": "104 Trần Hưng Đạo, Quận Gò Vấp, TP. Hồ Chí Minh",
    "phone": "0916452717",
    "latitude": 10.859361,
    "longitude": 106.513916
  },
  {
    "id": "C0458",
    "name": "Phạm Văn An",
    "address": "676 Cách Mạng Tháng Tám, TP. Thủ Đức, TP. Hồ Chí Minh",
    "phone": "0923010812",
    "latitude": 10.750747,
    "longitude": 106.800461
  },
  {
    "id": "C0459",
    "name": "Đỗ Văn Cường",
    "address": "1222 Cách Mạng Tháng Tám, Huyện Củ Chi, TP. Hồ Chí Minh",
    "phone": "0924204636",
    "latitude": 10.953623,
    "longitude": 106.536131
  },
  {
    "id": "C0460",
    "name": "Phạm Văn Hải",
    "address": "1082 Lê Lợi, Quận 3, TP. Hồ Chí Minh",
    "phone": "0918696261",
    "latitude": 10.756211,
    "longitude": 106.552544
  },
  {
    "id": "C0461",
    "name": "Nguyễn Văn Cường",
    "address": "584 Trần Hưng Đạo, Quận 3, TP. Hồ Chí Minh",
    "phone": "0936590766",
    "latitude": 10.82177,
    "longitude": 106.842027
  },
  {
    "id": "C0462",
    "name": "Nguyễn Văn Minh",
    "address": "1198 Quang Trung, TP. Thủ Đức, TP. Hồ Chí Minh",
    "phone": "0929968111",
    "latitude": 10.783569,
    "longitude": 106.709447
  },
  {
    "id": "C0463",
    "name": "Nguyễn Văn Linh",
    "address": "309 Nguyễn Huệ, Huyện Củ Chi, TP. Hồ Chí Minh",
    "phone": "0987915641",
    "latitude": 10.752509,
    "longitude": 106.580776
  },
  {
    "id": "C0464",
    "name": "Bùi Văn Phương",
    "address": "1240 Điện Biên Phủ, TP. Thủ Đức, TP. Hồ Chí Minh",
    "phone": "0915228288",
    "latitude": 10.809644,
    "longitude": 106.732929
  },
  {
    "id": "C0465",
    "name": "Phạm Văn Bình",
    "address": "1177 Phan Bội Châu, Quận Gò Vấp, TP. Hồ Chí Minh",
    "phone": "0955822978",
    "latitude": 10.745458,
    "longitude": 106.741904
  },
  {
    "id": "C0466",
    "name": "Huỳnh Văn An",
    "address": "968 Lê Lợi, Quận 3, TP. Hồ Chí Minh",
    "phone": "0943628871",
    "latitude": 10.682677,
    "longitude": 106.860348
  },
  {
    "id": "C0467",
    "name": "Bùi Văn Phương",
    "address": "1222 Cách Mạng Tháng Tám, Huyện Củ Chi, TP. Hồ Chí Minh",
    "phone": "0973216976",
    "latitude": 10.821896,
    "longitude": 106.76025
  },
  {
    "id": "C0468",
    "name": "Hoàng Văn Nga",
    "address": "812 Phan Bội Châu, Quận 1, TP. Hồ Chí Minh",
    "phone": "0942343910",
    "latitude": 10.861372,
    "longitude": 106.438118
  },
  {
    "id": "C0469",
    "name": "Đỗ Văn Minh",
    "address": "1064 Điện Biên Phủ, TP. Thủ Đức, TP. Hồ Chí Minh",
    "phone": "0916599942",
    "latitude": 10.636173,
    "longitude": 106.78529
  },
  {
    "id": "C0470",
    "name": "Võ Văn Quân",
    "address": "1142 Quang Trung, TP. Thủ Đức, TP. Hồ Chí Minh",
    "phone": "0999894843",
    "latitude": 10.64628,
    "longitude": 106.753668
  },
  {
    "id": "C0471",
    "name": "Đặng Văn Bình",
    "address": "922 Lê Lợi, TP. Thủ Đức, TP. Hồ Chí Minh",
    "phone": "0920095413",
    "latitude": 10.886128,
    "longitude": 106.776444
  },
  {
    "id": "C0472",
    "name": "Lê Văn Linh",
    "address": "1207 Quang Trung, Quận Gò Vấp, TP. Hồ Chí Minh",
    "phone": "0963746927",
    "latitude": 10.871631,
    "longitude": 106.815466
  },
  {
    "id": "C0473",
    "name": "Nguyễn Văn Bình",
    "address": "8 Cách Mạng Tháng Tám, Quận Gò Vấp, TP. Hồ Chí Minh",
    "phone": "0957026006",
    "latitude": 10.842432,
    "longitude": 106.678063
  },
  {
    "id": "C0474",
    "name": "Đặng Văn Bình",
    "address": "596 Trần Hưng Đạo, Quận Gò Vấp, TP. Hồ Chí Minh",
    "phone": "0911559568",
    "latitude": 10.636527,
    "longitude": 106.758256
  },
  {
    "id": "C0475",
    "name": "Lê Văn Nga",
    "address": "344 Nguyễn Huệ, Huyện Củ Chi, TP. Hồ Chí Minh",
    "phone": "0923579975",
    "latitude": 10.877405,
    "longitude": 106.552044
  },
  {
    "id": "C0476",
    "name": "Phạm Văn Minh",
    "address": "912 Trần Hưng Đạo, Quận 3, TP. Hồ Chí Minh",
    "phone": "0932761898",
    "latitude": 10.882572,
    "longitude": 106.560636
  },
  {
    "id": "C0477",
    "name": "Hoàng Văn Hải",
    "address": "321 Lê Lợi, Quận 1, TP. Hồ Chí Minh",
    "phone": "0933047115",
    "latitude": 10.978077,
    "longitude": 106.62427
  },
  {
    "id": "C0478",
    "name": "Phạm Văn Dung",
    "address": "514 Quang Trung, Huyện Củ Chi, TP. Hồ Chí Minh",
    "phone": "0914573287",
    "latitude": 10.744658,
    "longitude": 106.672318
  },
  {
    "id": "C0479",
    "name": "Nguyễn Văn Minh",
    "address": "674 Phan Bội Châu, Quận 3, TP. Hồ Chí Minh",
    "phone": "0920278124",
    "latitude": 10.775667,
    "longitude": 106.701769
  },
  {
    "id": "C0480",
    "name": "Nguyễn Văn Hải",
    "address": "1191 Lý Thường Kiệt, Quận 3, TP. Hồ Chí Minh",
    "phone": "0985883617",
    "latitude": 10.719559,
    "longitude": 106.596443
  },
  {
    "id": "C0481",
    "name": "Phạm Văn Nga",
    "address": "967 Trần Hưng Đạo, Quận Gò Vấp, TP. Hồ Chí Minh",
    "phone": "0933859000",
    "latitude": 10.979331,
    "longitude": 106.526497
  },
  {
    "id": "C0482",
    "name": "Lê Văn Minh",
    "address": "133 Trần Hưng Đạo, TP. Thủ Đức, TP. Hồ Chí Minh",
    "phone": "0918896261",
    "latitude": 10.804965,
    "longitude": 106.479178
  },
  {
    "id": "C0483",
    "name": "Đỗ Văn Nga",
    "address": "660 Lý Thường Kiệt, Huyện Bình Chánh, TP. Hồ Chí Minh",
    "phone": "0946912091",
    "latitude": 10.718431,
    "longitude": 106.748645
  },
  {
    "id": "C0484",
    "name": "Đặng Văn Minh",
    "address": "398 Lý Thường Kiệt, Quận 3, TP. Hồ Chí Minh",
    "phone": "0938702530",
    "latitude": 10.87185,
    "longitude": 106.732175
  },
  {
    "id": "C0485",
    "name": "Phạm Văn Minh",
    "address": "962 Phan Bội Châu, Quận 3, TP. Hồ Chí Minh",
    "phone": "0995301177",
    "latitude": 10.73102,
    "longitude": 106.582317
  },
  {
    "id": "C0486",
    "name": "Lê Văn Dung",
    "address": "1056 Trần Hưng Đạo, Huyện Bình Chánh, TP. Hồ Chí Minh",
    "phone": "0977314285",
    "latitude": 10.80001,
    "longitude": 106.798949
  },
  {
    "id": "C0487",
    "name": "Đặng Văn Cường",
    "address": "886 Nguyễn Huệ, Huyện Bình Chánh, TP. Hồ Chí Minh",
    "phone": "0965548310",
    "latitude": 10.823086,
    "longitude": 106.750844
  },
  {
    "id": "C0488",
    "name": "Nguyễn Văn An",
    "address": "299 Nguyễn Huệ, Huyện Củ Chi, TP. Hồ Chí Minh",
    "phone": "0956920583",
    "latitude": 10.872009,
    "longitude": 106.769715
  },
  {
    "id": "C0489",
    "name": "Lê Văn Phương",
    "address": "827 Nguyễn Huệ, Huyện Bình Chánh, TP. Hồ Chí Minh",
    "phone": "0915431150",
    "latitude": 10.811082,
    "longitude": 106.676501
  },
  {
    "id": "C0490",
    "name": "Lê Văn Quân",
    "address": "1320 Quang Trung, Quận 3, TP. Hồ Chí Minh",
    "phone": "0995893500",
    "latitude": 10.666344,
    "longitude": 106.891382
  },
  {
    "id": "C0491",
    "name": "Trần Văn Dung",
    "address": "394 Hùng Vương, Quận Gò Vấp, TP. Hồ Chí Minh",
    "phone": "0977847968",
    "latitude": 10.726888,
    "longitude": 106.636227
  },
  {
    "id": "C0492",
    "name": "Bùi Văn Phương",
    "address": "737 Quang Trung, Huyện Bình Chánh, TP. Hồ Chí Minh",
    "phone": "0926276655",
    "latitude": 10.948519,
    "longitude": 106.736502
  },
  {
    "id": "C0493",
    "name": "Huỳnh Văn Dung",
    "address": "759 Điện Biên Phủ, Huyện Bình Chánh, TP. Hồ Chí Minh",
    "phone": "0951127034",
    "latitude": 10.765764,
    "longitude": 106.508809
  },
  {
    "id": "C0494",
    "name": "Nguyễn Văn Quân",
    "address": "27 Cách Mạng Tháng Tám, Quận 1, TP. Hồ Chí Minh",
    "phone": "0968825463",
    "latitude": 10.720515,
    "longitude": 106.615459
  },
  {
    "id": "C0495",
    "name": "Hoàng Văn Linh",
    "address": "166 Lê Lợi, Quận 1, TP. Hồ Chí Minh",
    "phone": "0931861021",
    "latitude": 10.811816,
    "longitude": 106.746696
  },
  {
    "id": "C0496",
    "name": "Đặng Văn Quân",
    "address": "643 Điện Biên Phủ, Quận 3, TP. Hồ Chí Minh",
    "phone": "0962296314",
    "latitude": 10.954409,
    "longitude": 106.473167
  },
  {
    "id": "C0497",
    "name": "Võ Văn Phương",
    "address": "1233 Cách Mạng Tháng Tám, TP. Thủ Đức, TP. Hồ Chí Minh",
    "phone": "0962913282",
    "latitude": 10.785229,
    "longitude": 106.891063
  },
  {
    "id": "C0498",
    "name": "Nguyễn Văn Hải",
    "address": "305 Lý Thường Kiệt, TP. Thủ Đức, TP. Hồ Chí Minh",
    "phone": "0978673786",
    "latitude": 10.783342,
    "longitude": 106.736038
  },
  {
    "id": "C0499",
    "name": "Trần Văn Linh",
    "address": "827 Phan Bội Châu, Quận 1, TP. Hồ Chí Minh",
    "phone": "0933526150",
    "latitude": 10.952517,
    "longitude": 106.758956
  },
  {
    "id": "C0500",
    "name": "Võ Văn Linh",
    "address": "573 Quang Trung, Quận Gò Vấp, TP. Hồ Chí Minh",
    "phone": "0938645637",
    "latitude": 10.924318,
    "longitude": 106.482232
  },
  {
    "id": "C0501",
    "name": "Phạm Văn Minh",
    "address": "1280 Điện Biên Phủ, Huyện Bình Chánh, TP. Hồ Chí Minh",
    "phone": "0930857480",
    "latitude": 10.923781,
    "longitude": 106.478252
  },
  {
    "id": "C0502",
    "name": "Nguyễn Văn Hải",
    "address": "1324 30/4, Quận 3, TP. Hồ Chí Minh",
    "phone": "0995829803",
    "latitude": 10.873103,
    "longitude": 106.820836
  },
  {
    "id": "C0503",
    "name": "Bùi Văn Quân",
    "address": "634 Hùng Vương, Huyện Củ Chi, TP. Hồ Chí Minh",
    "phone": "0925360730",
    "latitude": 10.655845,
    "longitude": 106.663004
  },
  {
    "id": "C0504",
    "name": "Nguyễn Văn Minh",
    "address": "172 Hùng Vương, Quận 1, TP. Hồ Chí Minh",
    "phone": "0935973508",
    "latitude": 10.80619,
    "longitude": 106.812702
  },
  {
    "id": "C0505",
    "name": "Trần Văn Nga",
    "address": "311 Lý Thường Kiệt, Huyện Bình Chánh, TP. Hồ Chí Minh",
    "phone": "0968146374",
    "latitude": 10.816709,
    "longitude": 106.812484
  },
  {
    "id": "C0506",
    "name": "Võ Văn Quân",
    "address": "684 Điện Biên Phủ, Quận Gò Vấp, TP. Hồ Chí Minh",
    "phone": "0956153399",
    "latitude": 10.752769,
    "longitude": 106.561074
  },
  {
    "id": "C0507",
    "name": "Lê Văn An",
    "address": "765 30/4, Quận 3, TP. Hồ Chí Minh",
    "phone": "0965307244",
    "latitude": 10.651502,
    "longitude": 106.814522
  },
  {
    "id": "C0508",
    "name": "Huỳnh Văn Bình",
    "address": "480 Điện Biên Phủ, Huyện Củ Chi, TP. Hồ Chí Minh",
    "phone": "0956097520",
    "latitude": 10.856527,
    "longitude": 106.814532
  },
  {
    "id": "C0509",
    "name": "Võ Văn An",
    "address": "730 Lý Thường Kiệt, Huyện Bình Chánh, TP. Hồ Chí Minh",
    "phone": "0950607745",
    "latitude": 10.815985,
    "longitude": 106.657324
  },
  {
    "id": "C0510",
    "name": "Huỳnh Văn Dung",
    "address": "983 Nguyễn Huệ, Quận 1, TP. Hồ Chí Minh",
    "phone": "0914908141",
    "latitude": 10.597239,
    "longitude": 106.871528
  },
  {
    "id": "C0511",
    "name": "Nguyễn Văn Minh",
    "address": "244 Hùng Vương, Quận 1, TP. Hồ Chí Minh",
    "phone": "0996310956",
    "latitude": 10.817866,
    "longitude": 106.410155
  },
  {
    "id": "C0512",
    "name": "Đỗ Văn Nga",
    "address": "665 Lê Lợi, Huyện Bình Chánh, TP. Hồ Chí Minh",
    "phone": "0954976719",
    "latitude": 10.837045,
    "longitude": 106.649379
  },
  {
    "id": "C0513",
    "name": "Hoàng Văn Linh",
    "address": "141 Lê Lợi, Huyện Bình Chánh, TP. Hồ Chí Minh",
    "phone": "0912767154",
    "latitude": 10.787019,
    "longitude": 106.845571
  },
  {
    "id": "C0514",
    "name": "Trần Văn Phương",
    "address": "1316 Lê Lợi, Huyện Bình Chánh, TP. Hồ Chí Minh",
    "phone": "0968033085",
    "latitude": 10.955576,
    "longitude": 106.611647
  },
  {
    "id": "C0515",
    "name": "Đỗ Văn An",
    "address": "222 Hùng Vương, TP. Thủ Đức, TP. Hồ Chí Minh",
    "phone": "0920025311",
    "latitude": 10.817167,
    "longitude": 106.609802
  },
  {
    "id": "C0516",
    "name": "Đỗ Văn Phương",
    "address": "692 Trần Hưng Đạo, Quận Gò Vấp, TP. Hồ Chí Minh",
    "phone": "0939382818",
    "latitude": 10.828167,
    "longitude": 106.781508
  },
  {
    "id": "C0517",
    "name": "Trần Văn Dung",
    "address": "143 Nguyễn Huệ, Quận Gò Vấp, TP. Hồ Chí Minh",
    "phone": "0951179618",
    "latitude": 10.656009,
    "longitude": 106.642673
  },
  {
    "id": "C0518",
    "name": "Nguyễn Văn Bình",
    "address": "1497 Trần Hưng Đạo, Quận 3, TP. Hồ Chí Minh",
    "phone": "0919804350",
    "latitude": 10.97056,
    "longitude": 106.524562
  },
  {
    "id": "C0519",
    "name": "Bùi Văn Linh",
    "address": "1298 30/4, Quận 3, TP. Hồ Chí Minh",
    "phone": "0962217851",
    "latitude": 10.769612,
    "longitude": 106.814892
  },
  {
    "id": "C0520",
    "name": "Đặng Văn Nga",
    "address": "957 Quang Trung, Quận 1, TP. Hồ Chí Minh",
    "phone": "0916889565",
    "latitude": 10.9534,
    "longitude": 106.625166
  },
  {
    "id": "C0521",
    "name": "Võ Văn Linh",
    "address": "186 Lý Thường Kiệt, Huyện Củ Chi, TP. Hồ Chí Minh",
    "phone": "0985232198",
    "latitude": 10.921008,
    "longitude": 106.502782
  },
  {
    "id": "C0522",
    "name": "Đỗ Văn Quân",
    "address": "403 30/4, TP. Thủ Đức, TP. Hồ Chí Minh",
    "phone": "0916304028",
    "latitude": 10.859893,
    "longitude": 106.771329
  },
  {
    "id": "C0523",
    "name": "Hoàng Văn Cường",
    "address": "469 Nguyễn Huệ, Huyện Củ Chi, TP. Hồ Chí Minh",
    "phone": "0916344125",
    "latitude": 10.950922,
    "longitude": 106.615829
  },
  {
    "id": "C0524",
    "name": "Phạm Văn Dung",
    "address": "149 Trần Hưng Đạo, TP. Thủ Đức, TP. Hồ Chí Minh",
    "phone": "0941422510",
    "latitude": 10.697997,
    "longitude": 106.759727
  },
  {
    "id": "C0525",
    "name": "Võ Văn Hải",
    "address": "1483 Nguyễn Huệ, Quận Gò Vấp, TP. Hồ Chí Minh",
    "phone": "0939170484",
    "latitude": 10.775481,
    "longitude": 106.438048
  },
  {
    "id": "C0526",
    "name": "Đặng Văn Minh",
    "address": "1065 Nguyễn Huệ, Quận 1, TP. Hồ Chí Minh",
    "phone": "0990965373",
    "latitude": 10.708482,
    "longitude": 106.710278
  },
  {
    "id": "C0527",
    "name": "Trần Văn Dung",
    "address": "125 Hùng Vương, Huyện Bình Chánh, TP. Hồ Chí Minh",
    "phone": "0962997001",
    "latitude": 10.816631,
    "longitude": 106.434971
  },
  {
    "id": "C0528",
    "name": "Đặng Văn Quân",
    "address": "1317 Hùng Vương, Quận 3, TP. Hồ Chí Minh",
    "phone": "0937638908",
    "latitude": 10.859785,
    "longitude": 106.888695
  },
  {
    "id": "C0529",
    "name": "Đỗ Văn Dung",
    "address": "848 Hùng Vương, Quận 3, TP. Hồ Chí Minh",
    "phone": "0977901452",
    "latitude": 10.619541,
    "longitude": 106.853206
  },
  {
    "id": "C0530",
    "name": "Hoàng Văn An",
    "address": "53 Điện Biên Phủ, Quận 3, TP. Hồ Chí Minh",
    "phone": "0930633620",
    "latitude": 10.77624,
    "longitude": 106.438837
  },
  {
    "id": "C0531",
    "name": "Đặng Văn Linh",
    "address": "911 Cách Mạng Tháng Tám, Quận 3, TP. Hồ Chí Minh",
    "phone": "0939916201",
    "latitude": 10.726662,
    "longitude": 106.848281
  },
  {
    "id": "C0532",
    "name": "Võ Văn Nga",
    "address": "38 Nguyễn Huệ, Quận 1, TP. Hồ Chí Minh",
    "phone": "0921785460",
    "latitude": 10.731436,
    "longitude": 106.470082
  },
  {
    "id": "C0533",
    "name": "Huỳnh Văn Dung",
    "address": "1118 Điện Biên Phủ, TP. Thủ Đức, TP. Hồ Chí Minh",
    "phone": "0938692190",
    "latitude": 10.811995,
    "longitude": 106.578631
  },
  {
    "id": "C0534",
    "name": "Bùi Văn Hải",
    "address": "1357 Lý Thường Kiệt, Quận 1, TP. Hồ Chí Minh",
    "phone": "0978267410",
    "latitude": 10.787494,
    "longitude": 106.439537
  },
  {
    "id": "C0535",
    "name": "Bùi Văn Dung",
    "address": "1215 Nguyễn Huệ, Huyện Lâm Hà, Lâm Đồng",
    "phone": "0981136031",
    "latitude": 12.109422,
    "longitude": 107.640877
  },
  {
    "id": "C0536",
    "name": "Hoàng Văn An",
    "address": "1267 30/4, Huyện Lâm Hà, Lâm Đồng",
    "phone": "0979696341",
    "latitude": 12.079614,
    "longitude": 107.747348
  },
  {
    "id": "C0537",
    "name": "Nguyễn Văn Quân",
    "address": "310 Lý Thường Kiệt, Huyện Đức Trọng, Lâm Đồng",
    "phone": "0920080417",
    "latitude": 11.298757,
    "longitude": 108.15598
  },
  {
    "id": "C0538",
    "name": "Đặng Văn An",
    "address": "336 Hùng Vương, TP. Bảo Lộc, Lâm Đồng",
    "phone": "0910935113",
    "latitude": 11.644204,
    "longitude": 107.423934
  },
  {
    "id": "C0539",
    "name": "Đỗ Văn Bình",
    "address": "263 Hùng Vương, Huyện Đức Trọng, Lâm Đồng",
    "phone": "0961336441",
    "latitude": 11.34096,
    "longitude": 108.173827
  },
  {
    "id": "C0540",
    "name": "Lê Văn Hải",
    "address": "877 Nguyễn Huệ, Huyện Đức Trọng, Lâm Đồng",
    "phone": "0940225649",
    "latitude": 11.328345,
    "longitude": 107.838285
  },
  {
    "id": "C0541",
    "name": "Hoàng Văn Minh",
    "address": "608 Cách Mạng Tháng Tám, TP. Đà Lạt, Lâm Đồng",
    "phone": "0944150060",
    "latitude": 11.295808,
    "longitude": 107.849396
  },
  {
    "id": "C0542",
    "name": "Lê Văn An",
    "address": "1077 Cách Mạng Tháng Tám, TP. Bảo Lộc, Lâm Đồng",
    "phone": "0941967852",
    "latitude": 11.427371,
    "longitude": 107.881311
  },
  {
    "id": "C0543",
    "name": "Võ Văn Dung",
    "address": "283 Lý Thường Kiệt, Huyện Lâm Hà, Lâm Đồng",
    "phone": "0947546382",
    "latitude": 12.089809,
    "longitude": 107.659938
  },
  {
    "id": "C0544",
    "name": "Võ Văn Nga",
    "address": "1333 Lý Thường Kiệt, Huyện Đức Trọng, Lâm Đồng",
    "phone": "0910970264",
    "latitude": 11.910929,
    "longitude": 108.013023
  },
  {
    "id": "C0545",
    "name": "Võ Văn Quân",
    "address": "1491 Lý Thường Kiệt, Huyện Đức Trọng, Lâm Đồng",
    "phone": "0923331662",
    "latitude": 11.969965,
    "longitude": 107.806045
  },
  {
    "id": "C0546",
    "name": "Nguyễn Văn Minh",
    "address": "1090 Lê Lợi, Huyện Di Linh, Lâm Đồng",
    "phone": "0974389952",
    "latitude": 11.409702,
    "longitude": 108.265042
  },
  {
    "id": "C0547",
    "name": "Phạm Văn Cường",
    "address": "840 Quang Trung, Huyện Đức Trọng, Lâm Đồng",
    "phone": "0941715164",
    "latitude": 11.258958,
    "longitude": 107.648163
  },
  {
    "id": "C0548",
    "name": "Bùi Văn Cường",
    "address": "162 Lý Thường Kiệt, Huyện Di Linh, Lâm Đồng",
    "phone": "0968843178",
    "latitude": 11.41407,
    "longitude": 108.314213
  },
  {
    "id": "C0549",
    "name": "Bùi Văn Linh",
    "address": "1044 Lê Lợi, Huyện Di Linh, Lâm Đồng",
    "phone": "0911370185",
    "latitude": 11.22196,
    "longitude": 108.225887
  },
  {
    "id": "C0550",
    "name": "Võ Văn Linh",
    "address": "25 Quang Trung, Huyện Lâm Hà, Lâm Đồng",
    "phone": "0949064864",
    "latitude": 11.673819,
    "longitude": 107.870996
  },
  {
    "id": "C0551",
    "name": "Trần Văn Linh",
    "address": "1161 Trần Hưng Đạo, Huyện Lâm Hà, Lâm Đồng",
    "phone": "0915842488",
    "latitude": 11.495565,
    "longitude": 108.026996
  },
  {
    "id": "C0552",
    "name": "Võ Văn Phương",
    "address": "22 Phan Bội Châu, TP. Bảo Lộc, Lâm Đồng",
    "phone": "0921130130",
    "latitude": 11.489371,
    "longitude": 108.004479
  },
  {
    "id": "C0553",
    "name": "Nguyễn Văn An",
    "address": "1136 Trần Hưng Đạo, TP. Bảo Lộc, Lâm Đồng",
    "phone": "0952874514",
    "latitude": 11.954021,
    "longitude": 107.871507
  },
  {
    "id": "C0554",
    "name": "Đặng Văn Linh",
    "address": "840 Trần Hưng Đạo, Huyện Lâm Hà, Lâm Đồng",
    "phone": "0948345943",
    "latitude": 11.449589,
    "longitude": 107.800927
  },
  {
    "id": "C0555",
    "name": "Võ Văn Cường",
    "address": "400 Cách Mạng Tháng Tám, TP. Đà Lạt, Lâm Đồng",
    "phone": "0966502374",
    "latitude": 11.27354,
    "longitude": 108.186198
  },
  {
    "id": "C0556",
    "name": "Trần Văn Cường",
    "address": "274 Lý Thường Kiệt, Huyện Đức Trọng, Lâm Đồng",
    "phone": "0948894820",
    "latitude": 11.532956,
    "longitude": 107.78217
  },
  {
    "id": "C0557",
    "name": "Bùi Văn Phương",
    "address": "832 Quang Trung, Huyện Đức Trọng, Lâm Đồng",
    "phone": "0932454558",
    "latitude": 11.230832,
    "longitude": 108.398819
  },
  {
    "id": "C0558",
    "name": "Huỳnh Văn Phương",
    "address": "896 Lý Thường Kiệt, Huyện Lâm Hà, Lâm Đồng",
    "phone": "0998119879",
    "latitude": 11.499193,
    "longitude": 107.420155
  },
  {
    "id": "C0559",
    "name": "Lê Văn Phương",
    "address": "159 Lê Lợi, Huyện Lâm Hà, Lâm Đồng",
    "phone": "0937855513",
    "latitude": 11.470328,
    "longitude": 107.657549
  },
  {
    "id": "C0560",
    "name": "Lê Văn Linh",
    "address": "93 Quang Trung, TP. Bảo Lộc, Lâm Đồng",
    "phone": "0939373385",
    "latitude": 11.876088,
    "longitude": 107.749588
  },
  {
    "id": "C0561",
    "name": "Huỳnh Văn Cường",
    "address": "901 Phan Bội Châu, Huyện Đức Trọng, Lâm Đồng",
    "phone": "0976441434",
    "latitude": 11.778036,
    "longitude": 107.714595
  },
  {
    "id": "C0562",
    "name": "Phạm Văn Linh",
    "address": "988 30/4, Huyện Lâm Hà, Lâm Đồng",
    "phone": "0984328215",
    "latitude": 11.872618,
    "longitude": 107.868873
  },
  {
    "id": "C0563",
    "name": "Nguyễn Văn Nga",
    "address": "1270 Hùng Vương, Huyện Lâm Hà, Lâm Đồng",
    "phone": "0968446307",
    "latitude": 11.207983,
    "longitude": 107.802445
  },
  {
    "id": "C0564",
    "name": "Phạm Văn Bình",
    "address": "852 Trần Hưng Đạo, Huyện Lâm Hà, Lâm Đồng",
    "phone": "0946237431",
    "latitude": 11.279563,
    "longitude": 107.827894
  },
  {
    "id": "C0565",
    "name": "Trần Văn An",
    "address": "1237 Trần Hưng Đạo, Huyện Di Linh, Lâm Đồng",
    "phone": "0923955476",
    "latitude": 11.406303,
    "longitude": 107.787991
  },
  {
    "id": "C0566",
    "name": "Hoàng Văn An",
    "address": "409 Hùng Vương, Huyện Lâm Hà, Lâm Đồng",
    "phone": "0958242768",
    "latitude": 11.819394,
    "longitude": 107.663417
  },
  {
    "id": "C0567",
    "name": "Trần Văn Dung",
    "address": "1228 Cách Mạng Tháng Tám, Huyện Di Linh, Lâm Đồng",
    "phone": "0951737305",
    "latitude": 11.486838,
    "longitude": 108.165836
  },
  {
    "id": "C0568",
    "name": "Hoàng Văn Bình",
    "address": "363 30/4, Huyện Lâm Hà, Lâm Đồng",
    "phone": "0935121355",
    "latitude": 11.701509,
    "longitude": 108.03445
  },
  {
    "id": "C0569",
    "name": "Lê Văn Linh",
    "address": "181 Phan Bội Châu, Huyện Lâm Hà, Lâm Đồng",
    "phone": "0915041560",
    "latitude": 11.280373,
    "longitude": 108.147816
  },
  {
    "id": "C0570",
    "name": "Nguyễn Văn Cường",
    "address": "1106 Lê Lợi, Huyện Lâm Hà, Lâm Đồng",
    "phone": "0921114475",
    "latitude": 11.527671,
    "longitude": 108.13984
  },
  {
    "id": "C0571",
    "name": "Trần Văn Quân",
    "address": "1116 Cách Mạng Tháng Tám, TP. Bảo Lộc, Lâm Đồng",
    "phone": "0944508641",
    "latitude": 11.690326,
    "longitude": 108.192959
  },
  {
    "id": "C0572",
    "name": "Võ Văn Cường",
    "address": "309 Lý Thường Kiệt, Huyện Di Linh, Lâm Đồng",
    "phone": "0943978889",
    "latitude": 11.61382,
    "longitude": 107.482872
  },
  {
    "id": "C0573",
    "name": "Lê Văn Minh",
    "address": "1341 Lý Thường Kiệt, Huyện Đức Trọng, Lâm Đồng",
    "phone": "0983086701",
    "latitude": 11.440673,
    "longitude": 107.513223
  },
  {
    "id": "C0574",
    "name": "Đặng Văn An",
    "address": "1269 Quang Trung, TP. Bảo Lộc, Lâm Đồng",
    "phone": "0953758038",
    "latitude": 11.259393,
    "longitude": 108.389833
  },
  {
    "id": "C0575",
    "name": "Đỗ Văn Phương",
    "address": "1465 Điện Biên Phủ, Huyện Lâm Hà, Lâm Đồng",
    "phone": "0932972312",
    "latitude": 11.223468,
    "longitude": 108.136166
  },
  {
    "id": "C0576",
    "name": "Đặng Văn Nga",
    "address": "67 Lê Lợi, TP. Đà Lạt, Lâm Đồng",
    "phone": "0939760936",
    "latitude": 11.205871,
    "longitude": 108.192661
  },
  {
    "id": "C0577",
    "name": "Phạm Văn Quân",
    "address": "468 Lê Lợi, Huyện Di Linh, Lâm Đồng",
    "phone": "0923932641",
    "latitude": 11.849213,
    "longitude": 107.81527
  },
  {
    "id": "C0578",
    "name": "Phạm Văn Cường",
    "address": "789 Cách Mạng Tháng Tám, Huyện Di Linh, Lâm Đồng",
    "phone": "0957393255",
    "latitude": 11.19815,
    "longitude": 107.918456
  },
  {
    "id": "C0579",
    "name": "Đặng Văn Bình",
    "address": "972 Lê Lợi, Huyện Đức Trọng, Lâm Đồng",
    "phone": "0971713535",
    "latitude": 11.567648,
    "longitude": 107.735767
  },
  {
    "id": "C0580",
    "name": "Trần Văn Nga",
    "address": "944 Phan Bội Châu, Huyện Đức Trọng, Lâm Đồng",
    "phone": "0944531761",
    "latitude": 11.629042,
    "longitude": 107.627937
  },
  {
    "id": "C0581",
    "name": "Phạm Văn Linh",
    "address": "1249 Hùng Vương, Huyện Đức Trọng, Lâm Đồng",
    "phone": "0983237814",
    "latitude": 11.207982,
    "longitude": 108.028481
  },
  {
    "id": "C0582",
    "name": "Võ Văn Quân",
    "address": "629 Cách Mạng Tháng Tám, Huyện Đức Trọng, Lâm Đồng",
    "phone": "0961983846",
    "latitude": 11.898294,
    "longitude": 107.429716
  },
  {
    "id": "C0583",
    "name": "Đặng Văn An",
    "address": "973 Phan Bội Châu, Huyện Lâm Hà, Lâm Đồng",
    "phone": "0929345106",
    "latitude": 11.679381,
    "longitude": 107.946661
  },
  {
    "id": "C0584",
    "name": "Bùi Văn Linh",
    "address": "953 Quang Trung, TP. Đà Lạt, Lâm Đồng",
    "phone": "0936584533",
    "latitude": 11.496745,
    "longitude": 108.238802
  },
  {
    "id": "C0585",
    "name": "Lê Văn Quân",
    "address": "59 Cách Mạng Tháng Tám, Huyện Lâm Hà, Lâm Đồng",
    "phone": "0991395536",
    "latitude": 11.80632,
    "longitude": 107.92261
  },
  {
    "id": "C0586",
    "name": "Bùi Văn Hải",
    "address": "1446 Lê Lợi, Huyện Di Linh, Lâm Đồng",
    "phone": "0969805443",
    "latitude": 11.370052,
    "longitude": 107.718032
  },
  {
    "id": "C0587",
    "name": "Bùi Văn Phương",
    "address": "1239 Trần Hưng Đạo, Huyện Đức Trọng, Lâm Đồng",
    "phone": "0945526542",
    "latitude": 11.978218,
    "longitude": 107.822565
  },
  {
    "id": "C0588",
    "name": "Đặng Văn Quân",
    "address": "351 Trần Hưng Đạo, TP. Bảo Lộc, Lâm Đồng",
    "phone": "0967523170",
    "latitude": 11.678829,
    "longitude": 108.149694
  },
  {
    "id": "C0589",
    "name": "Võ Văn Bình",
    "address": "359 Lê Lợi, Huyện Lâm Hà, Lâm Đồng",
    "phone": "0984768807",
    "latitude": 11.912516,
    "longitude": 107.576254
  },
  {
    "id": "C0590",
    "name": "Đỗ Văn Dung",
    "address": "889 Lê Lợi, Huyện Di Linh, Lâm Đồng",
    "phone": "0917816124",
    "latitude": 11.182934,
    "longitude": 107.850328
  },
  {
    "id": "C0591",
    "name": "Phạm Văn Hải",
    "address": "822 Điện Biên Phủ, Huyện Đức Trọng, Lâm Đồng",
    "phone": "0952390269",
    "latitude": 11.839997,
    "longitude": 107.49597
  },
  {
    "id": "C0592",
    "name": "Nguyễn Văn Dung",
    "address": "20 30/4, Huyện Di Linh, Lâm Đồng",
    "phone": "0980277235",
    "latitude": 11.707914,
    "longitude": 107.767524
  },
  {
    "id": "C0593",
    "name": "Phạm Văn Nga",
    "address": "563 Trần Hưng Đạo, Huyện Lâm Hà, Lâm Đồng",
    "phone": "0993743707",
    "latitude": 11.927025,
    "longitude": 107.981392
  },
  {
    "id": "C0594",
    "name": "Đặng Văn Quân",
    "address": "471 Hùng Vương, Huyện Đức Trọng, Lâm Đồng",
    "phone": "0957856232",
    "latitude": 11.351119,
    "longitude": 107.971462
  },
  {
    "id": "C0595",
    "name": "Phạm Văn Phương",
    "address": "29 Quang Trung, TP. Bảo Lộc, Lâm Đồng",
    "phone": "0952484837",
    "latitude": 11.562035,
    "longitude": 108.129779
  },
  {
    "id": "C0596",
    "name": "Võ Văn Quân",
    "address": "171 30/4, TP. Bảo Lộc, Lâm Đồng",
    "phone": "0936122419",
    "latitude": 11.835601,
    "longitude": 107.962688
  },
  {
    "id": "C0597",
    "name": "Trần Văn Linh",
    "address": "262 30/4, Huyện Đức Trọng, Lâm Đồng",
    "phone": "0930153372",
    "latitude": 11.550638,
    "longitude": 107.849788
  },
  {
    "id": "C0598",
    "name": "Đỗ Văn An",
    "address": "1241 Nguyễn Huệ, Huyện Đức Trọng, Lâm Đồng",
    "phone": "0926170226",
    "latitude": 12.029223,
    "longitude": 107.632925
  },
  {
    "id": "C0599",
    "name": "Đỗ Văn Phương",
    "address": "956 Nguyễn Huệ, TP. Đà Lạt, Lâm Đồng",
    "phone": "0920511065",
    "latitude": 11.548289,
    "longitude": 108.132419
  },
  {
    "id": "C0600",
    "name": "Lê Văn Dung",
    "address": "891 Trần Hưng Đạo, TP. Đà Lạt, Lâm Đồng",
    "phone": "0961763541",
    "latitude": 11.280373,
    "longitude": 107.667881
  },
  {
    "id": "C0601",
    "name": "Đặng Văn Linh",
    "address": "137 Lê Lợi, Huyện Đức Trọng, Lâm Đồng",
    "phone": "0979303816",
    "latitude": 11.3894,
    "longitude": 107.595582
  },
  {
    "id": "C0602",
    "name": "Đặng Văn An",
    "address": "1060 30/4, Huyện Di Linh, Lâm Đồng",
    "phone": "0960891007",
    "latitude": 12.070786,
    "longitude": 107.525364
  },
  {
    "id": "C0603",
    "name": "Huỳnh Văn Nga",
    "address": "1181 Trần Hưng Đạo, Huyện Đức Trọng, Lâm Đồng",
    "phone": "0990602030",
    "latitude": 11.738495,
    "longitude": 108.067814
  },
  {
    "id": "C0604",
    "name": "Hoàng Văn An",
    "address": "758 30/4, Huyện Di Linh, Lâm Đồng",
    "phone": "0950570822",
    "latitude": 11.962915,
    "longitude": 107.712693
  },
  {
    "id": "C0605",
    "name": "Đặng Văn Linh",
    "address": "939 Lê Lợi, Huyện Đức Trọng, Lâm Đồng",
    "phone": "0972512551",
    "latitude": 11.311997,
    "longitude": 108.439852
  },
  {
    "id": "C0606",
    "name": "Đặng Văn Linh",
    "address": "318 Nguyễn Huệ, Huyện Di Linh, Lâm Đồng",
    "phone": "0930334981",
    "latitude": 12.051926,
    "longitude": 107.671503
  },
  {
    "id": "C0607",
    "name": "Hoàng Văn Dung",
    "address": "20 Phan Bội Châu, Huyện Đức Trọng, Lâm Đồng",
    "phone": "0992728446",
    "latitude": 11.793266,
    "longitude": 107.584082
  },
  {
    "id": "C0608",
    "name": "Đặng Văn An",
    "address": "1150 Hùng Vương, Huyện Lâm Hà, Lâm Đồng",
    "phone": "0970638050",
    "latitude": 11.292265,
    "longitude": 107.837339
  },
  {
    "id": "C0609",
    "name": "Võ Văn Cường",
    "address": "375 Quang Trung, TP. Bảo Lộc, Lâm Đồng",
    "phone": "0933378111",
    "latitude": 11.803896,
    "longitude": 107.622898
  },
  {
    "id": "C0610",
    "name": "Nguyễn Văn Minh",
    "address": "1283 Nguyễn Huệ, Huyện Đức Trọng, Lâm Đồng",
    "phone": "0949271653",
    "latitude": 11.658423,
    "longitude": 108.134539
  },
  {
    "id": "C0611",
    "name": "Trần Văn Quân",
    "address": "724 Cách Mạng Tháng Tám, Huyện Đức Trọng, Lâm Đồng",
    "phone": "0971918867",
    "latitude": 11.637925,
    "longitude": 108.221035
  },
  {
    "id": "C0612",
    "name": "Huỳnh Văn Nga",
    "address": "1204 Điện Biên Phủ, Huyện Đức Trọng, Lâm Đồng",
    "phone": "0915116966",
    "latitude": 11.721926,
    "longitude": 107.955453
  },
  {
    "id": "C0613",
    "name": "Lê Văn Hải",
    "address": "622 30/4, TP. Đà Lạt, Lâm Đồng",
    "phone": "0969621192",
    "latitude": 11.770273,
    "longitude": 107.88285
  },
  {
    "id": "C0614",
    "name": "Đặng Văn An",
    "address": "1149 Quang Trung, TP. Đà Lạt, Lâm Đồng",
    "phone": "0965599319",
    "latitude": 11.562722,
    "longitude": 108.093523
  },
  {
    "id": "C0615",
    "name": "Huỳnh Văn Phương",
    "address": "1274 Trần Hưng Đạo, TP. Đà Lạt, Lâm Đồng",
    "phone": "0928648809",
    "latitude": 11.689985,
    "longitude": 107.847298
  },
  {
    "id": "C0616",
    "name": "Đỗ Văn Linh",
    "address": "137 Nguyễn Huệ, Huyện Lâm Hà, Lâm Đồng",
    "phone": "0989953028",
    "latitude": 11.984593,
    "longitude": 107.847476
  },
  {
    "id": "C0617",
    "name": "Hoàng Văn Phương",
    "address": "1114 Lý Thường Kiệt, Huyện Di Linh, Lâm Đồng",
    "phone": "0991130570",
    "latitude": 11.739391,
    "longitude": 107.700934
  },
  {
    "id": "C0618",
    "name": "Bùi Văn Nga",
    "address": "681 Nguyễn Huệ, TP. Bảo Lộc, Lâm Đồng",
    "phone": "0983460797",
    "latitude": 11.586611,
    "longitude": 107.663032
  },
  {
    "id": "C0619",
    "name": "Võ Văn An",
    "address": "939 Lê Lợi, TP. Đà Lạt, Lâm Đồng",
    "phone": "0922918036",
    "latitude": 11.24173,
    "longitude": 108.204413
  },
  {
    "id": "C0620",
    "name": "Hoàng Văn Minh",
    "address": "888 30/4, Huyện Đức Trọng, Lâm Đồng",
    "phone": "0967257050",
    "latitude": 11.405913,
    "longitude": 107.779274
  },
  {
    "id": "C0621",
    "name": "Huỳnh Văn Bình",
    "address": "765 Điện Biên Phủ, TP. Bảo Lộc, Lâm Đồng",
    "phone": "0964487395",
    "latitude": 11.801725,
    "longitude": 107.654405
  },
  {
    "id": "C0622",
    "name": "Bùi Văn An",
    "address": "81 Phan Bội Châu, TP. Đà Lạt, Lâm Đồng",
    "phone": "0914594466",
    "latitude": 11.528199,
    "longitude": 107.562184
  },
  {
    "id": "C0623",
    "name": "Võ Văn An",
    "address": "745 Cách Mạng Tháng Tám, Huyện Di Linh, Lâm Đồng",
    "phone": "0965148844",
    "latitude": 11.79961,
    "longitude": 107.963358
  },
  {
    "id": "C0624",
    "name": "Nguyễn Văn Phương",
    "address": "1158 Hùng Vương, Thị xã Kiến Tường, Long An",
    "phone": "0945101769",
    "latitude": 10.72994,
    "longitude": 106.108775
  },
  {
    "id": "C0625",
    "name": "Bùi Văn Hải",
    "address": "617 Quang Trung, Thị xã Kiến Tường, Long An",
    "phone": "0913510567",
    "latitude": 10.628631,
    "longitude": 106.379288
  },
  {
    "id": "C0626",
    "name": "Huỳnh Văn Quân",
    "address": "304 Trần Hưng Đạo, Huyện Cần Giuộc, Long An",
    "phone": "0978103636",
    "latitude": 10.700186,
    "longitude": 106.077257
  },
  {
    "id": "C0627",
    "name": "Lê Văn Hải",
    "address": "475 Cách Mạng Tháng Tám, Huyện Cần Giuộc, Long An",
    "phone": "0930687179",
    "latitude": 10.79963,
    "longitude": 106.013715
  },
  {
    "id": "C0628",
    "name": "Lê Văn Quân",
    "address": "158 Quang Trung, Thị xã Kiến Tường, Long An",
    "phone": "0918305152",
    "latitude": 10.602319,
    "longitude": 106.525274
  },
  {
    "id": "C0629",
    "name": "Đỗ Văn Minh",
    "address": "581 Quang Trung, Huyện Cần Giuộc, Long An",
    "phone": "0939179264",
    "latitude": 10.873859,
    "longitude": 106.414041
  },
  {
    "id": "C0630",
    "name": "Hoàng Văn Phương",
    "address": "334 Phan Bội Châu, Huyện Bến Lức, Long An",
    "phone": "0982601815",
    "latitude": 10.782884,
    "longitude": 106.001528
  },
  {
    "id": "C0631",
    "name": "Bùi Văn Quân",
    "address": "139 Nguyễn Huệ, Huyện Bến Lức, Long An",
    "phone": "0974772507",
    "latitude": 10.554617,
    "longitude": 106.552572
  },
  {
    "id": "C0632",
    "name": "Đỗ Văn Quân",
    "address": "131 Điện Biên Phủ, Huyện Cần Giuộc, Long An",
    "phone": "0930962555",
    "latitude": 10.558826,
    "longitude": 106.502781
  },
  {
    "id": "C0633",
    "name": "Nguyễn Văn Cường",
    "address": "66 30/4, Huyện Bến Lức, Long An",
    "phone": "0942135770",
    "latitude": 10.782577,
    "longitude": 106.290652
  },
  {
    "id": "C0634",
    "name": "Hoàng Văn Linh",
    "address": "974 Lý Thường Kiệt, Thị xã Kiến Tường, Long An",
    "phone": "0970647666",
    "latitude": 10.751282,
    "longitude": 106.097992
  },
  {
    "id": "C0635",
    "name": "Hoàng Văn Nga",
    "address": "169 Nguyễn Huệ, Huyện Đức Hòa, Long An",
    "phone": "0957577382",
    "latitude": 10.656142,
    "longitude": 105.929198
  },
  {
    "id": "C0636",
    "name": "Võ Văn Cường",
    "address": "361 Cách Mạng Tháng Tám, Huyện Cần Giuộc, Long An",
    "phone": "0915711881",
    "latitude": 10.665886,
    "longitude": 106.419314
  },
  {
    "id": "C0637",
    "name": "Bùi Văn Linh",
    "address": "1216 30/4, Huyện Đức Hòa, Long An",
    "phone": "0928163604",
    "latitude": 10.654388,
    "longitude": 106.057779
  },
  {
    "id": "C0638",
    "name": "Đỗ Văn Phương",
    "address": "64 Hùng Vương, Thị xã Kiến Tường, Long An",
    "phone": "0997733320",
    "latitude": 10.754951,
    "longitude": 106.320722
  },
  {
    "id": "C0639",
    "name": "Hoàng Văn Linh",
    "address": "1419 Lê Lợi, Huyện Bến Lức, Long An",
    "phone": "0949091194",
    "latitude": 10.552756,
    "longitude": 106.527678
  },
  {
    "id": "C0640",
    "name": "Bùi Văn Minh",
    "address": "1350 Lý Thường Kiệt, Huyện Đức Hòa, Long An",
    "phone": "0926634709",
    "latitude": 10.796253,
    "longitude": 106.162918
  },
  {
    "id": "C0641",
    "name": "Trần Văn Dung",
    "address": "405 30/4, Huyện Đức Hòa, Long An",
    "phone": "0981494258",
    "latitude": 10.796534,
    "longitude": 106.355227
  },
  {
    "id": "C0642",
    "name": "Nguyễn Văn Dung",
    "address": "378 Trần Hưng Đạo, Huyện Đức Hòa, Long An",
    "phone": "0924185881",
    "latitude": 10.661591,
    "longitude": 106.087039
  },
  {
    "id": "C0643",
    "name": "Lê Văn Nga",
    "address": "1371 Nguyễn Huệ, Huyện Cần Giuộc, Long An",
    "phone": "0954856831",
    "latitude": 10.842362,
    "longitude": 106.401055
  },
  {
    "id": "C0644",
    "name": "Huỳnh Văn Linh",
    "address": "1004 Lý Thường Kiệt, Thị xã Kiến Tường, Long An",
    "phone": "0992730633",
    "latitude": 10.603539,
    "longitude": 107.499162
  },
  {
    "id": "C0645",
    "name": "Lê Văn Phương",
    "address": "185 Phan Bội Châu, Huyện Bến Lức, Long An",
    "phone": "0937259559",
    "latitude": 10.551669,
    "longitude": 106.208563
  },
  {
    "id": "C0646",
    "name": "Lê Văn Bình",
    "address": "891 Trần Hưng Đạo, Huyện Bến Lức, Long An",
    "phone": "0990671762",
    "latitude": 10.751326,
    "longitude": 106.280634
  },
  {
    "id": "C0647",
    "name": "Nguyễn Văn Cường",
    "address": "1431 Cách Mạng Tháng Tám, Huyện Bến Lức, Long An",
    "phone": "0980113407",
    "latitude": 10.651054,
    "longitude": 106.136146
  },
  {
    "id": "C0648",
    "name": "Lê Văn Cường",
    "address": "961 Phan Bội Châu, Huyện Bến Lức, Long An",
    "phone": "0998181904",
    "latitude": 10.666855,
    "longitude": 106.434219
  },
  {
    "id": "C0649",
    "name": "Trần Văn Linh",
    "address": "1119 Hùng Vương, Thị xã Kiến Tường, Long An",
    "phone": "0947670043",
    "latitude": 10.817718,
    "longitude": 106.037621
  },
  {
    "id": "C0650",
    "name": "Nguyễn Văn Cường",
    "address": "603 Hùng Vương, TP. Tân An, Long An",
    "phone": "0986471939",
    "latitude": 10.781298,
    "longitude": 106.347603
  },
  {
    "id": "C0651",
    "name": "Đặng Văn Dung",
    "address": "35 Quang Trung, TP. Tân An, Long An",
    "phone": "0941211375",
    "latitude": 10.640165,
    "longitude": 106.117005
  },
  {
    "id": "C0652",
    "name": "Võ Văn Quân",
    "address": "1058 Lý Thường Kiệt, Huyện Bến Lức, Long An",
    "phone": "0975348373",
    "latitude": 10.750528,
    "longitude": 105.972505
  },
  {
    "id": "C0653",
    "name": "Trần Văn Dung",
    "address": "228 Lê Lợi, Huyện Cần Giuộc, Long An",
    "phone": "0952842716",
    "latitude": 10.675004,
    "longitude": 106.485619
  },
  {
    "id": "C0654",
    "name": "Trần Văn An",
    "address": "911 Nguyễn Huệ, Thị xã Kiến Tường, Long An",
    "phone": "0974749555",
    "latitude": 10.60817,
    "longitude": 106.152584
  },
  {
    "id": "C0655",
    "name": "Đặng Văn Nga",
    "address": "479 Hùng Vương, Thị xã Kiến Tường, Long An",
    "phone": "0986012850",
    "latitude": 10.88465,
    "longitude": 106.381975
  },
  {
    "id": "C0656",
    "name": "Trần Văn Bình",
    "address": "1462 Lý Thường Kiệt, TP. Tân An, Long An",
    "phone": "0965337879",
    "latitude": 10.758624,
    "longitude": 106.060114
  },
  {
    "id": "C0657",
    "name": "Bùi Văn Nga",
    "address": "170 Hùng Vương, Thị xã Kiến Tường, Long An",
    "phone": "0950392774",
    "latitude": 10.686274,
    "longitude": 106.072776
  },
  {
    "id": "C0658",
    "name": "Đặng Văn Phương",
    "address": "1489 Lý Thường Kiệt, Thị xã Kiến Tường, Long An",
    "phone": "0970579445",
    "latitude": 10.569071,
    "longitude": 106.300451
  },
  {
    "id": "C0659",
    "name": "Võ Văn An",
    "address": "269 Cách Mạng Tháng Tám, Huyện Bến Lức, Long An",
    "phone": "0914870993",
    "latitude": 10.70101,
    "longitude": 106.051027
  },
  {
    "id": "C0660",
    "name": "Nguyễn Văn Dung",
    "address": "1353 30/4, Thị xã Kiến Tường, Long An",
    "phone": "0927363785",
    "latitude": 10.889363,
    "longitude": 106.411964
  },
  {
    "id": "C0661",
    "name": "Bùi Văn Hải",
    "address": "330 Lý Thường Kiệt, Thị xã Kiến Tường, Long An",
    "phone": "0926640954",
    "latitude": 10.602249,
    "longitude": 106.051092
  },
  {
    "id": "C0662",
    "name": "Hoàng Văn An",
    "address": "784 Lê Lợi, Huyện Đức Hòa, Long An",
    "phone": "0926501358",
    "latitude": 10.574708,
    "longitude": 106.313244
  },
  {
    "id": "C0663",
    "name": "Đặng Văn Phương",
    "address": "385 Trần Hưng Đạo, Thị xã Kiến Tường, Long An",
    "phone": "0914969100",
    "latitude": 10.725782,
    "longitude": 106.204681
  },
  {
    "id": "C0664",
    "name": "Hoàng Văn Nga",
    "address": "714 Cách Mạng Tháng Tám, Thị xã Kiến Tường, Long An",
    "phone": "0970130075",
    "latitude": 10.760318,
    "longitude": 106.368777
  },
  {
    "id": "C0665",
    "name": "Phạm Văn Dung",
    "address": "177 Cách Mạng Tháng Tám, Huyện Bến Lức, Long An",
    "phone": "0934098857",
    "latitude": 10.615548,
    "longitude": 107.325205
  },
  {
    "id": "C0666",
    "name": "Nguyễn Văn Bình",
    "address": "402 Cách Mạng Tháng Tám, Huyện Cần Giuộc, Long An",
    "phone": "0952913405",
    "latitude": 10.760222,
    "longitude": 106.171144
  },
  {
    "id": "C0667",
    "name": "Nguyễn Văn Minh",
    "address": "1343 Điện Biên Phủ, TP. Tân An, Long An",
    "phone": "0914289954",
    "latitude": 10.696979,
    "longitude": 106.353836
  },
  {
    "id": "C0668",
    "name": "Huỳnh Văn An",
    "address": "1458 Lê Lợi, Thị xã Kiến Tường, Long An",
    "phone": "0974277765",
    "latitude": 10.780346,
    "longitude": 106.350091
  },
  {
    "id": "C0669",
    "name": "Võ Văn Phương",
    "address": "248 Trần Hưng Đạo, Huyện Cần Giuộc, Long An",
    "phone": "0956876775",
    "latitude": 10.685166,
    "longitude": 106.359503
  },
  {
    "id": "C0670",
    "name": "Lê Văn Bình",
    "address": "806 Lê Lợi, Huyện Bến Lức, Long An",
    "phone": "0935318595",
    "latitude": 10.536714,
    "longitude": 106.219425
  },
  {
    "id": "C0671",
    "name": "Phạm Văn Quân",
    "address": "1494 Lý Thường Kiệt, Huyện Cần Giuộc, Long An",
    "phone": "0983773857",
    "latitude": 10.755471,
    "longitude": 106.116179
  },
  {
    "id": "C0672",
    "name": "Phạm Văn Nga",
    "address": "1322 Phan Bội Châu, Huyện Cần Giuộc, Long An",
    "phone": "0995643105",
    "latitude": 10.631708,
    "longitude": 105.946505
  },
  {
    "id": "C0673",
    "name": "Võ Văn Minh",
    "address": "1111 Nguyễn Huệ, Huyện Đức Hòa, Long An",
    "phone": "0917082528",
    "latitude": 10.554241,
    "longitude": 106.299681
  },
  {
    "id": "C0674",
    "name": "Trần Văn Phương",
    "address": "952 Cách Mạng Tháng Tám, Thị xã Kiến Tường, Long An",
    "phone": "0975821421",
    "latitude": 10.613088,
    "longitude": 106.21638
  },
  {
    "id": "C0675",
    "name": "Bùi Văn Bình",
    "address": "40 30/4, Thị xã Kiến Tường, Long An",
    "phone": "0932311305",
    "latitude": 10.621588,
    "longitude": 106.261508
  },
  {
    "id": "C0676",
    "name": "Đỗ Văn Nga",
    "address": "1292 Trần Hưng Đạo, Huyện Bến Lức, Long An",
    "phone": "0985746535",
    "latitude": 10.600613,
    "longitude": 106.385638
  },
  {
    "id": "C0677",
    "name": "Trần Văn Bình",
    "address": "1268 Phan Bội Châu, Huyện Đức Hòa, Long An",
    "phone": "0959168762",
    "latitude": 10.60709,
    "longitude": 106.223205
  },
  {
    "id": "C0678",
    "name": "Nguyễn Văn Dung",
    "address": "755 Cách Mạng Tháng Tám, Huyện Đức Hòa, Long An",
    "phone": "0977753465",
    "latitude": 10.812026,
    "longitude": 106.009016
  },
  {
    "id": "C0679",
    "name": "Nguyễn Văn An",
    "address": "943 Điện Biên Phủ, Thị xã Kiến Tường, Long An",
    "phone": "0945701399",
    "latitude": 10.61716,
    "longitude": 106.442708
  },
  {
    "id": "C0680",
    "name": "Đặng Văn An",
    "address": "893 Quang Trung, Huyện Bến Lức, Long An",
    "phone": "0960229387",
    "latitude": 11.520911,
    "longitude": 107.835706
  },
  {
    "id": "C0681",
    "name": "Trần Văn Cường",
    "address": "229 Hùng Vương, Huyện Đức Hòa, Long An",
    "phone": "0945121556",
    "latitude": 10.716303,
    "longitude": 106.260607
  },
  {
    "id": "C0682",
    "name": "Bùi Văn Linh",
    "address": "41 Trần Hưng Đạo, Huyện Bến Lức, Long An",
    "phone": "0928087632",
    "latitude": 10.547268,
    "longitude": 106.228277
  },
  {
    "id": "C0683",
    "name": "Hoàng Văn Minh",
    "address": "336 Lý Thường Kiệt, Thị xã Kiến Tường, Long An",
    "phone": "0928388969",
    "latitude": 10.828339,
    "longitude": 106.26894
  },
  {
    "id": "C0684",
    "name": "Đỗ Văn Dung",
    "address": "1424 Trần Hưng Đạo, TP. Tân An, Long An",
    "phone": "0934984832",
    "latitude": 10.614194,
    "longitude": 106.213272
  },
  {
    "id": "C0685",
    "name": "Huỳnh Văn Nga",
    "address": "187 Phan Bội Châu, Thị xã Kiến Tường, Long An",
    "phone": "0984048574",
    "latitude": 10.752782,
    "longitude": 105.985361
  },
  {
    "id": "C0686",
    "name": "Huỳnh Văn Quân",
    "address": "65 Nguyễn Huệ, TP. Tân An, Long An",
    "phone": "0941419221",
    "latitude": 10.774345,
    "longitude": 106.006434
  },
  {
    "id": "C0687",
    "name": "Phạm Văn Phương",
    "address": "1373 Lê Lợi, Thị xã Kiến Tường, Long An",
    "phone": "0996667076",
    "latitude": 10.581457,
    "longitude": 106.469672
  },
  {
    "id": "C0688",
    "name": "Huỳnh Văn Quân",
    "address": "937 Lý Thường Kiệt, Thị xã Kiến Tường, Long An",
    "phone": "0916454939",
    "latitude": 10.837738,
    "longitude": 106.296481
  },
  {
    "id": "C0689",
    "name": "Lê Văn Quân",
    "address": "976 Cách Mạng Tháng Tám, TP. Tân An, Long An",
    "phone": "0971852159",
    "latitude": 10.642592,
    "longitude": 106.055979
  },
  {
    "id": "C0690",
    "name": "Phạm Văn Quân",
    "address": "941 Lê Lợi, Huyện Cần Giuộc, Long An",
    "phone": "0989842989",
    "latitude": 10.673404,
    "longitude": 106.267393
  },
  {
    "id": "C0691",
    "name": "Lê Văn Cường",
    "address": "432 Phan Bội Châu, Huyện Bến Lức, Long An",
    "phone": "0960001822",
    "latitude": 10.777657,
    "longitude": 106.404479
  },
  {
    "id": "C0692",
    "name": "Nguyễn Văn Dung",
    "address": "258 Điện Biên Phủ, TP. Tân An, Long An",
    "phone": "0911556673",
    "latitude": 10.439872,
    "longitude": 107.310455
  },
  {
    "id": "C0693",
    "name": "Bùi Văn Phương",
    "address": "1003 Lý Thường Kiệt, TP. Tân An, Long An",
    "phone": "0910458548",
    "latitude": 10.676202,
    "longitude": 106.025167
  },
  {
    "id": "C0694",
    "name": "Trần Văn Cường",
    "address": "1266 Phan Bội Châu, Huyện Bến Lức, Long An",
    "phone": "0974407141",
    "latitude": 10.755488,
    "longitude": 106.074236
  },
  {
    "id": "C0695",
    "name": "Trần Văn Cường",
    "address": "1226 Trần Hưng Đạo, TP. Tân An, Long An",
    "phone": "0990665154",
    "latitude": 10.726453,
    "longitude": 106.43501
  },
  {
    "id": "C0696",
    "name": "Lê Văn Hải",
    "address": "868 30/4, Huyện Cần Giuộc, Long An",
    "phone": "0952568791",
    "latitude": 10.806541,
    "longitude": 106.052744
  },
  {
    "id": "C0697",
    "name": "Đặng Văn Cường",
    "address": "1208 Quang Trung, TP. Tân An, Long An",
    "phone": "0987814686",
    "latitude": 10.717369,
    "longitude": 106.366877
  },
  {
    "id": "C0698",
    "name": "Bùi Văn Bình",
    "address": "1334 Cách Mạng Tháng Tám, Thị xã Kiến Tường, Long An",
    "phone": "0969037470",
    "latitude": 10.538587,
    "longitude": 106.338648
  },
  {
    "id": "C0699",
    "name": "Hoàng Văn Hải",
    "address": "633 Lê Lợi, Huyện Cần Giuộc, Long An",
    "phone": "0992070089",
    "latitude": 10.720567,
    "longitude": 106.095785
  },
  {
    "id": "C0700",
    "name": "Võ Văn Quân",
    "address": "859 Phan Bội Châu, Thị xã Kiến Tường, Long An",
    "phone": "0939381806",
    "latitude": 10.796044,
    "longitude": 106.019496
  },
  {
    "id": "C0701",
    "name": "Đỗ Văn Hải",
    "address": "764 Trần Hưng Đạo, Huyện Cần Giuộc, Long An",
    "phone": "0993054142",
    "latitude": 10.587085,
    "longitude": 106.147373
  },
  {
    "id": "C0702",
    "name": "Bùi Văn Linh",
    "address": "489 Nguyễn Huệ, TP. Tân An, Long An",
    "phone": "0993561520",
    "latitude": 10.562351,
    "longitude": 106.113564
  },
  {
    "id": "C0703",
    "name": "Đặng Văn Quân",
    "address": "32 Quang Trung, Huyện Đức Hòa, Long An",
    "phone": "0920625174",
    "latitude": 10.815821,
    "longitude": 105.98266
  },
  {
    "id": "C0704",
    "name": "Huỳnh Văn Phương",
    "address": "1030 Lý Thường Kiệt, Huyện Đức Hòa, Long An",
    "phone": "0968962675",
    "latitude": 11.572459,
    "longitude": 107.801633
  },
  {
    "id": "C0705",
    "name": "Đặng Văn Dung",
    "address": "11 Lê Lợi, Huyện Cần Giuộc, Long An",
    "phone": "0952319948",
    "latitude": 10.869702,
    "longitude": 106.317026
  },
  {
    "id": "C0706",
    "name": "Đỗ Văn Bình",
    "address": "1033 Hùng Vương, Huyện Đức Hòa, Long An",
    "phone": "0957585931",
    "latitude": 10.647739,
    "longitude": 106.241304
  },
  {
    "id": "C0707",
    "name": "Hoàng Văn Cường",
    "address": "766 Lê Lợi, Thị xã Kiến Tường, Long An",
    "phone": "0981452536",
    "latitude": 10.576463,
    "longitude": 106.370054
  },
  {
    "id": "C0708",
    "name": "Đỗ Văn Cường",
    "address": "369 30/4, Huyện Cần Giuộc, Long An",
    "phone": "0922829668",
    "latitude": 10.674052,
    "longitude": 106.070055
  },
  {
    "id": "C0709",
    "name": "Võ Văn Quân",
    "address": "1221 Lý Thường Kiệt, Huyện Đức Hòa, Long An",
    "phone": "0996812105",
    "latitude": 10.603539,
    "longitude": 107.499162
  },
  {
    "id": "C0710",
    "name": "Hoàng Văn Cường",
    "address": "889 Trần Hưng Đạo, Huyện Bến Lức, Long An",
    "phone": "0981065623",
    "latitude": 10.764366,
    "longitude": 105.99034
  },
  {
    "id": "C0711",
    "name": "Trần Văn Minh",
    "address": "52 Trần Hưng Đạo, Huyện Đức Hòa, Long An",
    "phone": "0929693701",
    "latitude": 10.737166,
    "longitude": 106.421699
  },
  {
    "id": "C0712",
    "name": "Phạm Văn Bình",
    "address": "270 Hùng Vương, Thị xã Kiến Tường, Long An",
    "phone": "0910872699",
    "latitude": 10.638641,
    "longitude": 106.411426
  },
  {
    "id": "C0713",
    "name": "Nguyễn Văn Dung",
    "address": "417 30/4, Thị xã Trảng Bàng, Tây Ninh",
    "phone": "0988073517",
    "latitude": 11.646169,
    "longitude": 106.242071
  },
  {
    "id": "C0714",
    "name": "Lê Văn Cường",
    "address": "1070 Cách Mạng Tháng Tám, Thị xã Hòa Thành, Tây Ninh",
    "phone": "0939428379",
    "latitude": 11.423058,
    "longitude": 108.031267
  },
  {
    "id": "C0715",
    "name": "Đặng Văn Phương",
    "address": "880 Trần Hưng Đạo, Huyện Gò Dầu, Tây Ninh",
    "phone": "0994350705",
    "latitude": 11.457548,
    "longitude": 106.18634
  },
  {
    "id": "C0716",
    "name": "Bùi Văn Quân",
    "address": "855 Hùng Vương, Huyện Gò Dầu, Tây Ninh",
    "phone": "0931989239",
    "latitude": 11.011726,
    "longitude": 106.245848
  },
  {
    "id": "C0717",
    "name": "Đặng Văn Minh",
    "address": "231 Lý Thường Kiệt, Thị xã Hòa Thành, Tây Ninh",
    "phone": "0965703529",
    "latitude": 10.680329,
    "longitude": 107.728112
  },
  {
    "id": "C0718",
    "name": "Huỳnh Văn An",
    "address": "1190 Phan Bội Châu, Huyện Gò Dầu, Tây Ninh",
    "phone": "0910877924",
    "latitude": 11.267197,
    "longitude": 105.944023
  },
  {
    "id": "C0719",
    "name": "Trần Văn Cường",
    "address": "862 Điện Biên Phủ, Thị xã Trảng Bàng, Tây Ninh",
    "phone": "0929588281",
    "latitude": 11.621404,
    "longitude": 106.226404
  },
  {
    "id": "C0720",
    "name": "Trần Văn Bình",
    "address": "562 Lê Lợi, Huyện Gò Dầu, Tây Ninh",
    "phone": "0912554383",
    "latitude": 11.1806,
    "longitude": 106.249989
  },
  {
    "id": "C0721",
    "name": "Võ Văn Dung",
    "address": "879 Quang Trung, Thị xã Hòa Thành, Tây Ninh",
    "phone": "0935895557",
    "latitude": 11.049205,
    "longitude": 106.269449
  },
  {
    "id": "C0722",
    "name": "Huỳnh Văn Nga",
    "address": "938 Phan Bội Châu, Thị xã Trảng Bàng, Tây Ninh",
    "phone": "0933670777",
    "latitude": 10.894046,
    "longitude": 106.213717
  },
  {
    "id": "C0723",
    "name": "Trần Văn Cường",
    "address": "900 Cách Mạng Tháng Tám, Thị xã Hòa Thành, Tây Ninh",
    "phone": "0994493507",
    "latitude": 11.532974,
    "longitude": 106.181996
  },
  {
    "id": "C0724",
    "name": "Hoàng Văn Quân",
    "address": "581 Quang Trung, Thị xã Trảng Bàng, Tây Ninh",
    "phone": "0926254819",
    "latitude": 11.178623,
    "longitude": 106.097942
  },
  {
    "id": "C0725",
    "name": "Nguyễn Văn Quân",
    "address": "622 30/4, Thị xã Trảng Bàng, Tây Ninh",
    "phone": "0957916654",
    "latitude": 11.3642,
    "longitude": 106.188672
  },
  {
    "id": "C0726",
    "name": "Huỳnh Văn Bình",
    "address": "1030 Quang Trung, Thị xã Trảng Bàng, Tây Ninh",
    "phone": "0929606603",
    "latitude": 11.040757,
    "longitude": 106.273245
  },
  {
    "id": "C0727",
    "name": "Huỳnh Văn Quân",
    "address": "832 30/4, Thị xã Trảng Bàng, Tây Ninh",
    "phone": "0970584646",
    "latitude": 11.478337,
    "longitude": 106.188592
  },
  {
    "id": "C0728",
    "name": "Bùi Văn Dung",
    "address": "1006 Điện Biên Phủ, Huyện Gò Dầu, Tây Ninh",
    "phone": "0937765903",
    "latitude": 11.46918,
    "longitude": 106.020583
  },
  {
    "id": "C0729",
    "name": "Huỳnh Văn An",
    "address": "486 Quang Trung, Huyện Gò Dầu, Tây Ninh",
    "phone": "0939248882",
    "latitude": 11.104273,
    "longitude": 106.391822
  },
  {
    "id": "C0730",
    "name": "Đỗ Văn An",
    "address": "838 Cách Mạng Tháng Tám, Huyện Dương Minh Châu, Tây Ninh",
    "phone": "0992282528",
    "latitude": 11.253532,
    "longitude": 106.122059
  },
  {
    "id": "C0731",
    "name": "Hoàng Văn Linh",
    "address": "500 Nguyễn Huệ, TP. Tây Ninh, Tây Ninh",
    "phone": "0989028003",
    "latitude": 11.610543,
    "longitude": 106.505961
  },
  {
    "id": "C0732",
    "name": "Bùi Văn Linh",
    "address": "536 Điện Biên Phủ, Huyện Dương Minh Châu, Tây Ninh",
    "phone": "0952775710",
    "latitude": 11.176209,
    "longitude": 106.308974
  },
  {
    "id": "C0733",
    "name": "Nguyễn Văn Nga",
    "address": "179 Quang Trung, Thị xã Trảng Bàng, Tây Ninh",
    "phone": "0984108809",
    "latitude": 11.151576,
    "longitude": 106.412692
  },
  {
    "id": "C0734",
    "name": "Phạm Văn Bình",
    "address": "402 Hùng Vương, Thị xã Trảng Bàng, Tây Ninh",
    "phone": "0967768077",
    "latitude": 11.558691,
    "longitude": 106.211587
  },
  {
    "id": "C0735",
    "name": "Hoàng Văn An",
    "address": "1044 Hùng Vương, Huyện Dương Minh Châu, Tây Ninh",
    "phone": "0931140992",
    "latitude": 11.060947,
    "longitude": 106.202516
  },
  {
    "id": "C0736",
    "name": "Hoàng Văn Hải",
    "address": "391 Lê Lợi, Huyện Dương Minh Châu, Tây Ninh",
    "phone": "0971025918",
    "latitude": 11.296259,
    "longitude": 106.113162
  },
  {
    "id": "C0737",
    "name": "Huỳnh Văn Nga",
    "address": "1214 Quang Trung, Thị xã Hòa Thành, Tây Ninh",
    "phone": "0979113940",
    "latitude": 10.655893,
    "longitude": 107.699476
  },
  {
    "id": "C0738",
    "name": "Võ Văn Quân",
    "address": "214 Nguyễn Huệ, Thị xã Hòa Thành, Tây Ninh",
    "phone": "0946589930",
    "latitude": 11.268229,
    "longitude": 106.097011
  },
  {
    "id": "C0739",
    "name": "Huỳnh Văn Cường",
    "address": "1012 Phan Bội Châu, Huyện Gò Dầu, Tây Ninh",
    "phone": "0988423552",
    "latitude": 11.119338,
    "longitude": 106.278637
  },
  {
    "id": "C0740",
    "name": "Trần Văn An",
    "address": "212 Điện Biên Phủ, Thị xã Trảng Bàng, Tây Ninh",
    "phone": "0997745747",
    "latitude": 11.406104,
    "longitude": 106.155279
  },
  {
    "id": "C0741",
    "name": "Phạm Văn Bình",
    "address": "1145 Hùng Vương, Huyện Gò Dầu, Tây Ninh",
    "phone": "0935286516",
    "latitude": 11.281736,
    "longitude": 106.342968
  },
  {
    "id": "C0742",
    "name": "Bùi Văn Linh",
    "address": "219 Phan Bội Châu, Huyện Gò Dầu, Tây Ninh",
    "phone": "0938581226",
    "latitude": 11.661198,
    "longitude": 106.239703
  },
  {
    "id": "C0743",
    "name": "Võ Văn An",
    "address": "1150 Lý Thường Kiệt, Huyện Gò Dầu, Tây Ninh",
    "phone": "0945343334",
    "latitude": 11.465599,
    "longitude": 106.031061
  },
  {
    "id": "C0744",
    "name": "Huỳnh Văn Phương",
    "address": "325 Lý Thường Kiệt, Huyện Gò Dầu, Tây Ninh",
    "phone": "0922387322",
    "latitude": 11.435341,
    "longitude": 106.352856
  },
  {
    "id": "C0745",
    "name": "Trần Văn Bình",
    "address": "635 Trần Hưng Đạo, Huyện Gò Dầu, Tây Ninh",
    "phone": "0956117115",
    "latitude": 10.680329,
    "longitude": 107.728112
  },
  {
    "id": "C0746",
    "name": "Huỳnh Văn Quân",
    "address": "1052 Hùng Vương, TP. Tây Ninh, Tây Ninh",
    "phone": "0962042062",
    "latitude": 11.118829,
    "longitude": 106.266329
  },
  {
    "id": "C0747",
    "name": "Trần Văn Phương",
    "address": "1087 Lê Lợi, Huyện Dương Minh Châu, Tây Ninh",
    "phone": "0953101303",
    "latitude": 11.004699,
    "longitude": 106.366639
  },
  {
    "id": "C0748",
    "name": "Võ Văn Minh",
    "address": "1414 Điện Biên Phủ, Huyện Dương Minh Châu, Tây Ninh",
    "phone": "0984327439",
    "latitude": 11.257051,
    "longitude": 106.007859
  },
  {
    "id": "C0749",
    "name": "Đỗ Văn Dung",
    "address": "107 Điện Biên Phủ, Huyện Dương Minh Châu, Tây Ninh",
    "phone": "0954024609",
    "latitude": 10.893817,
    "longitude": 106.250157
  },
  {
    "id": "C0750",
    "name": "Huỳnh Văn Linh",
    "address": "123 Quang Trung, Thị xã Trảng Bàng, Tây Ninh",
    "phone": "0918561798",
    "latitude": 11.848902,
    "longitude": 106.518870
  },
  {
    "id": "C0751",
    "name": "Hoàng Văn Nga",
    "address": "1329 Cách Mạng Tháng Tám, Huyện Gò Dầu, Tây Ninh",
    "phone": "0949327168",
    "latitude": 11.601384,
    "longitude": 107.789520
  },
  {
    "id": "C0752",
    "name": "Võ Văn Hải",
    "address": "1241 Trần Hưng Đạo, TP. Tây Ninh, Tây Ninh",
    "phone": "0934757231",
    "latitude": 11.535725,
    "longitude": 106.338154
  },
  {
    "id": "C0753",
    "name": "Huỳnh Văn An",
    "address": "210 Lê Lợi, Thị xã Trảng Bàng, Tây Ninh",
    "phone": "0960391522",
    "latitude": 11.302566,
    "longitude": 106.122325
  },
  {
    "id": "C0754",
    "name": "Huỳnh Văn Phương",
    "address": "153 Quang Trung, Thị xã Hòa Thành, Tây Ninh",
    "phone": "0996438365",
    "latitude": 11.214099,
    "longitude": 106.094289
  },
  {
    "id": "C0755",
    "name": "Lê Văn Quân",
    "address": "1398 Điện Biên Phủ, Thị xã Hòa Thành, Tây Ninh",
    "phone": "0995148734",
    "latitude": 11.235272,
    "longitude": 105.994543
  },
  {
    "id": "C0756",
    "name": "Lê Văn An",
    "address": "372 Hùng Vương, Thị xã Hòa Thành, Tây Ninh",
    "phone": "0995383119",
    "latitude": 11.090936,
    "longitude": 106.287929
  },
  {
    "id": "C0757",
    "name": "Huỳnh Văn Minh",
    "address": "810 Hùng Vương, TP. Tây Ninh, Tây Ninh",
    "phone": "0970093782",
    "latitude": 11.257266,
    "longitude": 106.397219
  },
  {
    "id": "C0758",
    "name": "Võ Văn An",
    "address": "147 Hùng Vương, Huyện Gò Dầu, Tây Ninh",
    "phone": "0978777230",
    "latitude": 11.334616,
    "longitude": 106.287747
  },
  {
    "id": "C0759",
    "name": "Bùi Văn Hải",
    "address": "1318 30/4, TP. Tây Ninh, Tây Ninh",
    "phone": "0928710163",
    "latitude": 11.198174,
    "longitude": 106.037856
  },
  {
    "id": "C0760",
    "name": "Huỳnh Văn An",
    "address": "783 Trần Hưng Đạo, Thị xã Trảng Bàng, Tây Ninh",
    "phone": "0956174304",
    "latitude": 11.535373,
    "longitude": 106.269529
  },
  {
    "id": "C0761",
    "name": "Lê Văn Bình",
    "address": "1321 Lê Lợi, Huyện Gò Dầu, Tây Ninh",
    "phone": "0996615128",
    "latitude": 11.544113,
    "longitude": 106.045058
  },
  {
    "id": "C0762",
    "name": "Huỳnh Văn Linh",
    "address": "394 Hùng Vương, Huyện Dương Minh Châu, Tây Ninh",
    "phone": "0981863974",
    "latitude": 11.268089,
    "longitude": 106.048435
  },
  {
    "id": "C0763",
    "name": "Bùi Văn Linh",
    "address": "1489 Trần Hưng Đạo, TP. Tây Ninh, Tây Ninh",
    "phone": "0985819053",
    "latitude": 11.516643,
    "longitude": 106.061003
  },
  {
    "id": "C0764",
    "name": "Hoàng Văn Nga",
    "address": "503 Nguyễn Huệ, Huyện Dương Minh Châu, Tây Ninh",
    "phone": "0983623118",
    "latitude": 10.662050,
    "longitude": 107.715348
  },
  {
    "id": "C0765",
    "name": "Phạm Văn Hải",
    "address": "1171 Nguyễn Huệ, Huyện Gò Dầu, Tây Ninh",
    "phone": "0910813118",
    "latitude": 11.376176,
    "longitude": 106.310626
  },
  {
    "id": "C0766",
    "name": "Đỗ Văn Linh",
    "address": "698 Trần Hưng Đạo, Huyện Gò Dầu, Tây Ninh",
    "phone": "0993291625",
    "latitude": 11.070906,
    "longitude": 106.43346
  },
  {
    "id": "C0767",
    "name": "Hoàng Văn Minh",
    "address": "681 Điện Biên Phủ, Huyện Gò Dầu, Tây Ninh",
    "phone": "0980067063",
    "latitude": 11.095453,
    "longitude": 106.163698
  },
  {
    "id": "C0768",
    "name": "Lê Văn Bình",
    "address": "52 Lê Lợi, Thị xã Hòa Thành, Tây Ninh",
    "phone": "0912030217",
    "latitude": 11.552458,
    "longitude": 106.051282
  },
  {
    "id": "C0769",
    "name": "Võ Văn Phương",
    "address": "1386 Cách Mạng Tháng Tám, Thị xã Trảng Bàng, Tây Ninh",
    "phone": "0962450813",
    "latitude": 10.455216,
    "longitude": 107.332901
  },
  {
    "id": "C0770",
    "name": "Lê Văn Bình",
    "address": "1346 Cách Mạng Tháng Tám, Thị xã Hòa Thành, Tây Ninh",
    "phone": "0914210629",
    "latitude": 11.103921,
    "longitude": 106.133239
  },
  {
    "id": "C0771",
    "name": "Nguyễn Văn Minh",
    "address": "623 Lý Thường Kiệt, TP. Tây Ninh, Tây Ninh",
    "phone": "0997907669",
    "latitude": 11.670678,
    "longitude": 106.293403
  },
  {
    "id": "C0772",
    "name": "Lê Văn Cường",
    "address": "806 30/4, Thị xã Hòa Thành, Tây Ninh",
    "phone": "0943532895",
    "latitude": 11.190799,
    "longitude": 107.619597
  },
  {
    "id": "C0773",
    "name": "Đỗ Văn Quân",
    "address": "356 Quang Trung, Thị xã Trảng Bàng, Tây Ninh",
    "phone": "0999669985",
    "latitude": 11.392258,
    "longitude": 106.158046
  },
  {
    "id": "C0774",
    "name": "Võ Văn Bình",
    "address": "1111 30/4, Thị xã Trảng Bàng, Tây Ninh",
    "phone": "0951055919",
    "latitude": 11.035888,
    "longitude": 106.242374
  },
  {
    "id": "C0775",
    "name": "Trần Văn Linh",
    "address": "973 Nguyễn Huệ, Thị xã Trảng Bàng, Tây Ninh",
    "phone": "0991249425",
    "latitude": 11.393681,
    "longitude": 106.145644
  },
  {
    "id": "C0776",
    "name": "Trần Văn Cường",
    "address": "323 Trần Hưng Đạo, Thị xã Trảng Bàng, Tây Ninh",
    "phone": "0918836414",
    "latitude": 10.664150,
    "longitude": 107.201864
  },
  {
    "id": "C0777",
    "name": "Võ Văn Quân",
    "address": "11 Lê Lợi, TP. Tây Ninh, Tây Ninh",
    "phone": "0918026516",
    "latitude": 11.49079,
    "longitude": 106.067731
  },
  {
    "id": "C0778",
    "name": "Trần Văn An",
    "address": "280 Phan Bội Châu, Thị xã Trảng Bàng, Tây Ninh",
    "phone": "0986757127",
    "latitude": 11.391012,
    "longitude": 106.216168
  },
  {
    "id": "C0779",
    "name": "Võ Văn Nga",
    "address": "139 Lê Lợi, Thị xã Trảng Bàng, Tây Ninh",
    "phone": "0962543263",
    "latitude": 11.015449,
    "longitude": 106.204445
  },
  {
    "id": "C0780",
    "name": "Đỗ Văn Minh",
    "address": "517 Trần Hưng Đạo, Thị xã Hòa Thành, Tây Ninh",
    "phone": "0917639244",
    "latitude": 11.169969,
    "longitude": 106.112393
  },
  {
    "id": "C0781",
    "name": "Hoàng Văn Phương",
    "address": "439 Quang Trung, TP. Tây Ninh, Tây Ninh",
    "phone": "0962206756",
    "latitude": 11.590245,
    "longitude": 106.217479
  },
  {
    "id": "C0782",
    "name": "Hoàng Văn Phương",
    "address": "1402 Cách Mạng Tháng Tám, Thị xã Hòa Thành, Tây Ninh",
    "phone": "0960772319",
    "latitude": 11.592216,
    "longitude": 106.136021
  },
  {
    "id": "C0783",
    "name": "Nguyễn Văn Dung",
    "address": "576 Phan Bội Châu, Thị xã Hòa Thành, Tây Ninh",
    "phone": "0943045181",
    "latitude": 11.273089,
    "longitude": 106.271929
  },
  {
    "id": "C0784",
    "name": "Huỳnh Văn Quân",
    "address": "708 30/4, Thị xã Hòa Thành, Tây Ninh",
    "phone": "0951394992",
    "latitude": 11.378261,
    "longitude": 106.006114
  },
  {
    "id": "C0785",
    "name": "Hoàng Văn Cường",
    "address": "352 Hùng Vương, Huyện Gò Dầu, Tây Ninh",
    "phone": "0959170542",
    "latitude": 11.081557,
    "longitude": 106.321873
  },
  {
    "id": "C0786",
    "name": "Hoàng Văn Quân",
    "address": "1456 Cách Mạng Tháng Tám, Thị xã Hòa Thành, Tây Ninh",
    "phone": "0922162730",
    "latitude": 11.369972,
    "longitude": 106.144354
  },
  {
    "id": "C0787",
    "name": "Lê Văn Minh",
    "address": "1467 Quang Trung, Thị xã Hòa Thành, Tây Ninh",
    "phone": "0948888407",
    "latitude": 11.136820,
    "longitude": 107.824549
  },
  {
    "id": "C0788",
    "name": "Đặng Văn Dung",
    "address": "1047 Nguyễn Huệ, TP. Tây Ninh, Tây Ninh",
    "phone": "0941037808",
    "latitude": 11.278774,
    "longitude": 106.315413
  },
  {
    "id": "C0789",
    "name": "Lê Văn Linh",
    "address": "994 Phan Bội Châu, TP. Tây Ninh, Tây Ninh",
    "phone": "0964710881",
    "latitude": 11.569616,
    "longitude": 106.334266
  },
  {
    "id": "C0790",
    "name": "Võ Văn Minh",
    "address": "1239 Lê Lợi, Huyện Dương Minh Châu, Tây Ninh",
    "phone": "0999916809",
    "latitude": 11.03536,
    "longitude": 106.431036
  },
  {
    "id": "C0791",
    "name": "Lê Văn Quân",
    "address": "1173 Cách Mạng Tháng Tám, Huyện Dương Minh Châu, Tây Ninh",
    "phone": "0980083996",
    "latitude": 11.003177,
    "longitude": 107.831427
  },
  {
    "id": "C0792",
    "name": "Võ Văn Hải",
    "address": "1259 Cách Mạng Tháng Tám, Huyện Gò Dầu, Tây Ninh",
    "phone": "0932424487",
    "latitude": 11.302775,
    "longitude":107.662238
  },
  {
    "id": "C0793",
    "name": "Đặng Văn Minh",
    "address": "83 Trần Hưng Đạo, Thị xã Trảng Bàng, Tây Ninh",
    "phone": "0933343706",
    "latitude": 10.641577,
    "longitude": 107.749015
  },
  {
    "id": "C0794",
    "name": "Bùi Văn Quân",
    "address": "137 30/4, Huyện Gò Dầu, Tây Ninh",
    "phone": "0979412676",
    "latitude": 11.313787,
    "longitude": 106.014243
  },
  {
    "id": "C0795",
    "name": "Hoàng Văn Dung",
    "address": "1325 Phan Bội Châu, Huyện Dương Minh Châu, Tây Ninh",
    "phone": "0921066435",
    "latitude": 11.210116,
    "longitude": 106.171924
  },
  {
    "id": "C0796",
    "name": "Huỳnh Văn Cường",
    "address": "203 Điện Biên Phủ, Huyện Gò Dầu, Tây Ninh",
    "phone": "0989841451",
    "latitude": 11.558417,
    "longitude": 106.312481
  },
  {
    "id": "C0797",
    "name": "Đặng Văn Quân",
    "address": "425 30/4, Huyện Dương Minh Châu, Tây Ninh",
    "phone": "0921677612",
    "latitude": 11.205009,
    "longitude": 107.705423
  },
  {
    "id": "C0798",
    "name": "Võ Văn Phương",
    "address": "582 Cách Mạng Tháng Tám, Huyện Gò Dầu, Tây Ninh",
    "phone": "0959534147",
    "latitude": 11.302808,
    "longitude": 106.110678
  },
  {
    "id": "C0799",
    "name": "Bùi Văn Nga",
    "address": "1376 Nguyễn Huệ, Huyện Gò Dầu, Tây Ninh",
    "phone": "0983080874",
    "latitude": 11.524282,
    "longitude": 106.251323
  },
  {
    "id": "C0800",
    "name": "Hoàng Văn Cường",
    "address": "89 Cách Mạng Tháng Tám, Huyện Dương Minh Châu, Tây Ninh",
    "phone": "0947410480",
    "latitude": 10.636133,
    "longitude": 107.494508
  }
]