[
  {
    "id": "001",
    "name": "Kho Trung tâm - 001",
    "address": "1191/33 Trần Hưng Đạo, Thị xã Kiến Tường, Long An",
    "latitude": 10.429539,
    "longitude": 106.62029
  },
  {
    "id": "002",
    "name": "Kho Trung tâm - 002",
    "address": "633 Phạm Văn Đồng, Huyện Châu Đức, Bà Rịa - Vũng Tàu",
    "latitude": 10.692446,
    "longitude": 108.066219
  },
  {
    "id": "003",
    "name": "Kho Trung tâm - 003",
    "address": "211 Hùng Vương, Huyện Dương Minh Châu, Tây Ninh",
    "latitude": 11.923308,
    "longitude": 106.734568
  },
  {
    "id": "004",
    "name": "Kho Trung tâm - 004",
    "address": "892 30/4, TP. Thủ Dầu Một, Bình Dương",
    "latitude": 10.766442,
    "longitude": 107.190063
  },
  {
    "id": "005",
    "name": "Kho Trung tâm - 005",
    "address": "686 Nguyễn Trãi, TP. Đà Lạt, Lâm Đồng",
    "latitude": 10.784134,
    "longitude": 105.505875
  },
  {
    "id": "006",
    "name": "Kho Trung tâm - 006",
    "address": "370 Phạm Văn Đồng, TP. Thủ Đức, TP. Hồ Chí Minh",
    "latitude": 11.207965,
    "longitude": 106.944998
  },
  {
    "id": "007",
    "name": "Kho Trung tâm - 007",
    "address": "1341 Cách Mạng Tháng Tám, Huyện Bù Đăng, Bình Phước",
    "latitude": 10.686751,
    "longitude": 107.263782
  },
  {
    "id": "008",
    "name": "Kho Trung tâm - 008",
    "address": "285 Phan Bội Châu, Huyện Đức Hòa, Long An",
    "latitude": 10.216752,
    "longitude": 105.71098
  },
  {
    "id": "009",
    "name": "Kho Trung tâm - 009",
    "address": "271 Võ Thị Sáu, Huyện Bình Chánh, TP. Hồ Chí Minh",
    "latitude": 11.854887,
    "longitude": 106.937709
  },
  {
    "id": "010",
    "name": "Kho Trung tâm - 010",
    "address": "558/16 Lý Thường Kiệt, TP. Vũng Tàu, Bà Rịa - Vũng Tàu",
    "latitude": 11.971524,
    "longitude": 107.127091
  },
  {
    "id": "011",
    "name": "Kho Trung tâm - 011",
    "address": "896 Lê Duẩn, TP. Tân An, Long An",
    "latitude": 12.078654,
    "longitude": 108.838369
  },
  {
    "id": "012",
    "name": "Kho Trung tâm - 012",
    "address": "1454 30/4, Thị xã Phú Mỹ, Bà Rịa - Vũng Tàu",
    "latitude": 11.633331,
    "longitude": 106.453514
  },
  {
    "id": "013",
    "name": "Kho Trung tâm - 013",
    "address": "1429 Võ Thị Sáu, Huyện Trảng Bom, Đồng Nai",
    "latitude": 12.133441,
    "longitude": 108.150536
  },
  {
    "id": "014",
    "name": "Kho Trung tâm - 014",
    "address": "632/3 Nguyễn Trãi, Huyện Long Thành, Đồng Nai",
    "latitude": 11.636355,
    "longitude": 108.287599
  },
  {
    "id": "015",
    "name": "Kho Trung tâm - 015",
    "address": "302/7 Lê Duẩn, TP. Bà Rịa, Bà Rịa - Vũng Tàu",
    "latitude": 10.423118,
    "longitude": 107.829156
  },
  {
    "id": "016",
    "name": "Kho Trung tâm - 016",
    "address": "539 Quang Trung, Huyện Di Linh, Lâm Đồng",
    "latitude": 10.745754,
    "longitude": 108.221577
  },
  {
    "id": "017",
    "name": "Kho Trung tâm - 017",
    "address": "758 30/4, TP. Thủ Đức, TP. Hồ Chí Minh",
    "latitude": 10.223081,
    "longitude": 106.972189
  },
  {
    "id": "018",
    "name": "Kho Trung tâm - 018",
    "address": "446/46 Trần Hưng Đạo, Huyện Gò Dầu, Tây Ninh",
    "latitude": 11.258374,
    "longitude": 106.110774
  },
  {
    "id": "019",
    "name": "Kho Trung tâm - 019",
    "address": "1355 Lý Thường Kiệt, TP. Vũng Tàu, Bà Rịa - Vũng Tàu",
    "latitude": 10.721415,
    "longitude": 105.999317
  },
  {
    "id": "020",
    "name": "Kho Trung tâm - 020",
    "address": "1389 30/4, Huyện Long Thành, Đồng Nai",
    "latitude": 11.273097,
    "longitude": 105.79066
  },
  {
    "id": "021",
    "name": "Kho Trung tâm - 021",
    "address": "973/29 Phan Bội Châu, TP. Đồng Xoài, Bình Phước",
    "latitude": 12.062406,
    "longitude": 108.509602
  },
  {
    "id": "022",
    "name": "Kho Trung tâm - 022",
    "address": "148 Lê Duẩn, Thị xã Phú Mỹ, Bà Rịa - Vũng Tàu",
    "latitude": 10.662128,
    "longitude": 107.942902
  },
  {
    "id": "023",
    "name": "Kho Trung tâm - 023",
    "address": "1464/32 Hùng Vương, Thị xã Kiến Tường, Long An",
    "latitude": 11.136986,
    "longitude": 107.665025
  },
  {
    "id": "024",
    "name": "Kho Trung tâm - 024",
    "address": "680 Trần Phú, TP. Phan Thiết, Bình Thuận",
    "latitude": 11.131761,
    "longitude": 106.572987
  },
  {
    "id": "025",
    "name": "Kho Trung tâm - 025",
    "address": "294 Lê Lợi, Huyện Bù Đăng, Bình Phước",
    "latitude": 11.275808,
    "longitude": 105.780799
  },
  {
    "id": "026",
    "name": "Kho Trung tâm - 026",
    "address": "862 Điện Biên Phủ, Huyện Bắc Bình, Bình Thuận",
    "latitude": 11.076794,
    "longitude": 105.673846
  },
  {
    "id": "027",
    "name": "Kho Trung tâm - 027",
    "address": "296 Lý Thường Kiệt, Huyện Hàm Thuận Bắc, Bình Thuận",
    "latitude": 12.292172,
    "longitude": 106.849637
  },
  {
    "id": "028",
    "name": "Kho Trung tâm - 028",
    "address": "353 Phạm Văn Đồng, Huyện Tuy Phong, Bình Thuận",
    "latitude": 12.050247,
    "longitude": 106.052208
  },
  {
    "id": "029",
    "name": "Kho Trung tâm - 029",
    "address": "967 Phạm Văn Đồng, Huyện Châu Đức, Bà Rịa - Vũng Tàu",
    "latitude": 12.11245,
    "longitude": 105.886345
  },
  {
    "id": "030",
    "name": "Kho Trung tâm - 030",
    "address": "1443/24 30/4, TP. Tân An, Long An",
    "latitude": 11.398016,
    "longitude": 105.611943
  },
  {
    "id": "031",
    "name": "Kho Trung tâm - 031",
    "address": "797 Phạm Văn Đồng, TP. Bà Rịa, Bà Rịa - Vũng Tàu",
    "latitude": 11.204899,
    "longitude": 105.713966
  },
  {
    "id": "032",
    "name": "Kho Trung tâm - 032",
    "address": "1015 Nguyễn Trãi, Huyện Bến Lức, Long An",
    "latitude": 11.609706,
    "longitude": 106.685455
  },
  {
    "id": "033",
    "name": "Kho Trung tâm - 033",
    "address": "1471 Nguyễn Huệ, Huyện Châu Đức, Bà Rịa - Vũng Tàu",
    "latitude": 11.285601,
    "longitude": 106.19645
  },
  {
    "id": "034",
    "name": "Kho Trung tâm - 034",
    "address": "1261/3 Trần Phú, Huyện Di Linh, Lâm Đồng",
    "latitude": 10.597878,
    "longitude": 108.053139
  },
  {
    "id": "035",
    "name": "Kho Trung tâm - 035",
    "address": "707 Cách Mạng Tháng Tám, Huyện Cần Giuộc, Long An",
    "latitude": 10.449866,
    "longitude": 108.020815
  },
  {
    "id": "036",
    "name": "Kho Trung tâm - 036",
    "address": "1028 Quang Trung, Thị xã Phú Mỹ, Bà Rịa - Vũng Tàu",
    "latitude": 11.111778,
    "longitude": 106.804475
  },
  {
    "id": "037",
    "name": "Kho Trung tâm - 037",
    "address": "1151 Lý Thường Kiệt, Huyện Tuy Phong, Bình Thuận",
    "latitude": 11.37089,
    "longitude": 106.616981
  },
  {
    "id": "038",
    "name": "Kho Trung tâm - 038",
    "address": "532 Hùng Vương, TP. Thủ Đức, TP. Hồ Chí Minh",
    "latitude": 11.69813,
    "longitude": 108.763691
  },
  {
    "id": "039",
    "name": "Kho Trung tâm - 039",
    "address": "1056 Cách Mạng Tháng Tám, Huyện Bình Chánh, TP. Hồ Chí Minh",
    "latitude": 11.423835,
    "longitude": 108.703801
  },
  {
    "id": "040",
    "name": "Kho Trung tâm - 040",
    "address": "75 30/4, Thị xã Kiến Tường, Long An",
    "latitude": 10.356771,
    "longitude": 107.280441
  },
  {
    "id": "041",
    "name": "Kho Trung tâm - 041",
    "address": "70 Nguyễn Huệ, Huyện Gò Dầu, Tây Ninh",
    "latitude": 11.254771,
    "longitude": 108.193496
  },
  {
    "id": "042",
    "name": "Kho Trung tâm - 042",
    "address": "472/48 30/4, Thị xã Bình Long, Bình Phước",
    "latitude": 11.653026,
    "longitude": 106.632031
  },
  {
    "id": "043",
    "name": "Kho Trung tâm - 043",
    "address": "61 Lê Lợi, Huyện Cần Giuộc, Long An",
    "latitude": 12.311134,
    "longitude": 108.765989
  },
  {
    "id": "044",
    "name": "Kho Trung tâm - 044",
    "address": "1214 Trần Phú, TP. Thủ Dầu Một, Bình Dương",
    "latitude": 10.367583,
    "longitude": 107.637267
  },
  {
    "id": "045",
    "name": "Kho Trung tâm - 045",
    "address": "421/36 Trần Hưng Đạo, Huyện Dương Minh Châu, Tây Ninh",
    "latitude": 10.203297,
    "longitude": 106.133827
  },
  {
    "id": "046",
    "name": "Kho Trung tâm - 046",
    "address": "323 Nguyễn Trãi, Huyện Bắc Bình, Bình Thuận",
    "latitude": 11.505836,
    "longitude": 106.277322
  },
  {
    "id": "047",
    "name": "Kho Trung tâm - 047",
    "address": "1477 Trần Hưng Đạo, Huyện Hàm Thuận Bắc, Bình Thuận",
    "latitude": 10.68195,
    "longitude": 107.262074
  },
  {
    "id": "048",
    "name": "Kho Trung tâm - 048",
    "address": "202 Cách Mạng Tháng Tám, Huyện Bắc Bình, Bình Thuận",
    "latitude": 10.366016,
    "longitude": 106.691155
  },
  {
    "id": "049",
    "name": "Kho Trung tâm - 049",
    "address": "1032 Trần Phú, TP. Thuận An, Bình Dương",
    "latitude": 10.741106,
    "longitude": 108.117755
  },
  {
    "id": "050",
    "name": "Kho Trung tâm - 050",
    "address": "1063 Điện Biên Phủ, TP. Thuận An, Bình Dương",
    "latitude": 10.964605,
    "longitude": 106.730765
  },
  {
    "id": "051",
    "name": "Kho Trung tâm - 051",
    "address": "197 Nguyễn Huệ, Thị xã Trảng Bàng, Tây Ninh",
    "latitude": 11.081835,
    "longitude": 108.698743
  },
  {
    "id": "052",
    "name": "Kho Trung tâm - 052",
    "address": "864/47 Phan Bội Châu, Huyện Di Linh, Lâm Đồng",
    "latitude": 10.756687,
    "longitude": 106.54433
  },
  {
    "id": "053",
    "name": "Kho Trung tâm - 053",
    "address": "1359 Nguyễn Huệ, TP. Dĩ An, Bình Dương",
    "latitude": 11.331312,
    "longitude": 107.752085
  },
  {
    "id": "054",
    "name": "Kho Trung tâm - 054",
    "address": "517/20 Nguyễn Huệ, Huyện Bến Lức, Long An",
    "latitude": 10.86128,
    "longitude": 108.53518
  },
  {
    "id": "055",
    "name": "Kho Trung tâm - 055",
    "address": "1235 Điện Biên Phủ, TP. Biên Hòa, Đồng Nai",
    "latitude": 11.941051,
    "longitude": 107.381551
  },
  {
    "id": "056",
    "name": "Kho Trung tâm - 056",
    "address": "1476 Trần Phú, TP. Bảo Lộc, Lâm Đồng",
    "latitude": 11.576687,
    "longitude": 106.573399
  },
  {
    "id": "057",
    "name": "Kho Trung tâm - 057",
    "address": "767/45 Hùng Vương, Huyện Đức Hòa, Long An",
    "latitude": 11.585723,
    "longitude": 107.558666
  },
  {
    "id": "058",
    "name": "Kho Trung tâm - 058",
    "address": "226 Nguyễn Trãi, Thị xã Phước Long, Bình Phước",
    "latitude": 12.368925,
    "longitude": 106.636352
  },
  {
    "id": "059",
    "name": "Kho Trung tâm - 059",
    "address": "209/6 Điện Biên Phủ, Thị xã Phước Long, Bình Phước",
    "latitude": 11.145283,
    "longitude": 105.957486
  },
  {
    "id": "060",
    "name": "Kho Trung tâm - 060",
    "address": "135 Phạm Văn Đồng, Huyện Xuyên Mộc, Bà Rịa - Vũng Tàu",
    "latitude": 11.321831,
    "longitude": 107.33426
  },
  {
    "id": "061",
    "name": "Kho Trung tâm - 061",
    "address": "195 Cách Mạng Tháng Tám, Huyện Củ Chi, TP. Hồ Chí Minh",
    "latitude": 12.260842,
    "longitude": 107.885848
  },
  {
    "id": "062",
    "name": "Kho Trung tâm - 062",
    "address": "1034 Phạm Văn Đồng, TP. Long Khánh, Đồng Nai",
    "latitude": 11.530093,
    "longitude": 107.36497
  },
  {
    "id": "063",
    "name": "Kho Trung tâm - 063",
    "address": "233 30/4, TP. Bà Rịa, Bà Rịa - Vũng Tàu",
    "latitude": 12.192743,
    "longitude": 106.285669
  },
  {
    "id": "064",
    "name": "Kho Trung tâm - 064",
    "address": "319 Hùng Vương, Thị xã Bình Long, Bình Phước",
    "latitude": 10.679461,
    "longitude": 107.75786
  },
  {
    "id": "065",
    "name": "Kho Trung tâm - 065",
    "address": "509 Phan Bội Châu, Thị xã Phước Long, Bình Phước",
    "latitude": 11.745224,
    "longitude": 108.589613
  },
  {
    "id": "066",
    "name": "Kho Trung tâm - 066",
    "address": "1044/25 Quang Trung, TP. Thuận An, Bình Dương",
    "latitude": 12.334312,
    "longitude": 106.061082
  },
  {
    "id": "067",
    "name": "Kho Trung tâm - 067",
    "address": "1312/50 Lê Duẩn, Huyện Dầu Tiếng, Bình Dương",
    "latitude": 10.975352,
    "longitude": 106.660072
  },
  {
    "id": "068",
    "name": "Kho Trung tâm - 068",
    "address": "108 Trần Hưng Đạo, TP. Tây Ninh, Tây Ninh",
    "latitude": 10.483896,
    "longitude": 106.483429
  },
  {
    "id": "069",
    "name": "Kho Trung tâm - 069",
    "address": "302 Lê Lợi, Huyện Dương Minh Châu, Tây Ninh",
    "latitude": 11.707729,
    "longitude": 108.728263
  },
  {
    "id": "070",
    "name": "Kho Trung tâm - 070",
    "address": "488 30/4, TP. Thủ Đức, TP. Hồ Chí Minh",
    "latitude": 10.533218,
    "longitude": 106.938687
  },
  {
    "id": "071",
    "name": "Kho Trung tâm - 071",
    "address": "679 Điện Biên Phủ, Huyện Dương Minh Châu, Tây Ninh",
    "latitude": 10.520789,
    "longitude": 105.61678
  },
  {
    "id": "072",
    "name": "Kho Trung tâm - 072",
    "address": "10 Lý Thường Kiệt, Huyện Lâm Hà, Lâm Đồng",
    "latitude": 12.201234,
    "longitude": 108.239102
  },
  {
    "id": "073",
    "name": "Kho Trung tâm - 073",
    "address": "603 Lê Duẩn, Huyện Bến Lức, Long An",
    "latitude": 11.213912,
    "longitude": 107.696439
  },
  {
    "id": "074",
    "name": "Kho Trung tâm - 074",
    "address": "1092 Lê Duẩn, Huyện Di Linh, Lâm Đồng",
    "latitude": 12.148455,
    "longitude": 106.65994
  },
  {
    "id": "075",
    "name": "Kho Trung tâm - 075",
    "address": "159 Nguyễn Huệ, Thị xã Kiến Tường, Long An",
    "latitude": 10.633474,
    "longitude": 108.847434
  },
  {
    "id": "076",
    "name": "Kho Trung tâm - 076",
    "address": "1172/38 Cách Mạng Tháng Tám, Huyện Lâm Hà, Lâm Đồng",
    "latitude": 12.175702,
    "longitude": 107.886243
  },
  {
    "id": "077",
    "name": "Kho Trung tâm - 077",
    "address": "1441 Cách Mạng Tháng Tám, Huyện Xuyên Mộc, Bà Rịa - Vũng Tàu",
    "latitude": 12.217127,
    "longitude": 107.347839
  },
  {
    "id": "078",
    "name": "Kho Trung tâm - 078",
    "address": "189 Lý Thường Kiệt, TP. Bảo Lộc, Lâm Đồng",
    "latitude": 10.354361,
    "longitude": 106.23059
  },
  {
    "id": "079",
    "name": "Kho Trung tâm - 079",
    "address": "250 Phạm Văn Đồng, Thị xã Kiến Tường, Long An",
    "latitude": 12.097867,
    "longitude": 108.053263
  },
  {
    "id": "080",
    "name": "Kho Trung tâm - 080",
    "address": "1401 Võ Thị Sáu, Huyện Bình Chánh, TP. Hồ Chí Minh",
    "latitude": 11.770151,
    "longitude": 107.411781
  },
  {
    "id": "081",
    "name": "Kho Trung tâm - 081",
    "address": "1407/21 Điện Biên Phủ, Quận Gò Vấp, TP. Hồ Chí Minh",
    "latitude": 10.919502,
    "longitude": 106.04976
  },
  {
    "id": "082",
    "name": "Kho Trung tâm - 082",
    "address": "900/20 30/4, TP. Dĩ An, Bình Dương",
    "latitude": 12.160377,
    "longitude": 106.826522
  },
  {
    "id": "083",
    "name": "Kho Trung tâm - 083",
    "address": "509 Trần Hưng Đạo, Huyện Châu Đức, Bà Rịa - Vũng Tàu",
    "latitude": 11.247386,
    "longitude": 106.092478
  },
  {
    "id": "084",
    "name": "Kho Trung tâm - 084",
    "address": "847 Hùng Vương, Huyện Dầu Tiếng, Bình Dương",
    "latitude": 11.887625,
    "longitude": 107.751919
  },
  {
    "id": "085",
    "name": "Kho Trung tâm - 085",
    "address": "940 Phan Bội Châu, TP. Đà Lạt, Lâm Đồng",
    "latitude": 11.032838,
    "longitude": 105.899569
  },
  {
    "id": "086",
    "name": "Kho Trung tâm - 086",
    "address": "190/7 30/4, TP. Đà Lạt, Lâm Đồng",
    "latitude": 12.012136,
    "longitude": 106.875384
  },
  {
    "id": "087",
    "name": "Kho Trung tâm - 087",
    "address": "195 Phan Bội Châu, TP. Tân An, Long An",
    "latitude": 11.717563,
    "longitude": 105.587292
  },
  {
    "id": "088",
    "name": "Kho Trung tâm - 088",
    "address": "965 Điện Biên Phủ, Huyện Xuyên Mộc, Bà Rịa - Vũng Tàu",
    "latitude": 11.364177,
    "longitude": 108.792802
  },
  {
    "id": "089",
    "name": "Kho Trung tâm - 089",
    "address": "1414 Hùng Vương, Huyện Cần Giuộc, Long An",
    "latitude": 12.21204,
    "longitude": 106.538854
  },
  {
    "id": "090",
    "name": "Kho Trung tâm - 090",
    "address": "1422/40 Điện Biên Phủ, Huyện Lâm Hà, Lâm Đồng",
    "latitude": 12.250093,
    "longitude": 107.60136
  },
  {
    "id": "091",
    "name": "Kho Trung tâm - 091",
    "address": "218/37 Hùng Vương, Huyện Gò Dầu, Tây Ninh",
    "latitude": 11.069523,
    "longitude": 106.151934
  },
  {
    "id": "092",
    "name": "Kho Trung tâm - 092",
    "address": "497 Nguyễn Huệ, Huyện Chơn Thành, Bình Phước",
    "latitude": 11.783409,
    "longitude": 106.183067
  },
  {
    "id": "093",
    "name": "Kho Trung tâm - 093",
    "address": "1435/31 Trần Phú, Huyện Đức Trọng, Lâm Đồng",
    "latitude": 11.930767,
    "longitude": 108.164364
  },
  {
    "id": "094",
    "name": "Kho Trung tâm - 094",
    "address": "171/41 Phạm Văn Đồng, TP. Thuận An, Bình Dương",
    "latitude": 11.296574,
    "longitude": 105.954481
  },
  {
    "id": "095",
    "name": "Kho Trung tâm - 095",
    "address": "1340/16 Nguyễn Huệ, TP. Biên Hòa, Đồng Nai",
    "latitude": 11.489579,
    "longitude": 108.784025
  },
  {
    "id": "096",
    "name": "Kho Trung tâm - 096",
    "address": "1294/37 Võ Thị Sáu, Thị xã Phú Mỹ, Bà Rịa - Vũng Tàu",
    "latitude": 11.696592,
    "longitude": 107.754549
  },
  {
    "id": "097",
    "name": "Kho Trung tâm - 097",
    "address": "31 Lê Duẩn, TP. Bà Rịa, Bà Rịa - Vũng Tàu",
    "latitude": 10.615195,
    "longitude": 108.712724
  },
  {
    "id": "098",
    "name": "Kho Trung tâm - 098",
    "address": "164 Cách Mạng Tháng Tám, Thị xã Phước Long, Bình Phước",
    "latitude": 11.28224,
    "longitude": 105.751851
  },
  {
    "id": "099",
    "name": "Kho Trung tâm - 099",
    "address": "1193 Nguyễn Trãi, Huyện Đức Hòa, Long An",
    "latitude": 11.162222,
    "longitude": 108.315391
  },
  {
    "id": "100",
    "name": "Kho Trung tâm - 100",
    "address": "1484/47 Quang Trung, Thị xã Kiến Tường, Long An",
    "latitude": 12.130041,
    "longitude": 106.534992
  },
  {
    "id": "101",
    "name": "Kho Trung tâm - 101",
    "address": "228 Nguyễn Trãi, Huyện Nhơn Trạch, Đồng Nai",
    "latitude": 11.318048,
    "longitude": 107.014298
  },
  {
    "id": "102",
    "name": "Kho Trung tâm - 102",
    "address": "261 Lý Thường Kiệt, Thị xã Phú Mỹ, Bà Rịa - Vũng Tàu",
    "latitude": 11.920465,
    "longitude": 108.188427
  },
  {
    "id": "103",
    "name": "Kho Trung tâm - 103",
    "address": "1292 Nguyễn Huệ, TP. Thủ Dầu Một, Bình Dương",
    "latitude": 10.522179,
    "longitude": 108.76082
  },
  {
    "id": "104",
    "name": "Kho Trung tâm - 104",
    "address": "1284/36 Cách Mạng Tháng Tám, Thị xã La Gi, Bình Thuận",
    "latitude": 11.332242,
    "longitude": 108.236402
  },
  {
    "id": "105",
    "name": "Kho Trung tâm - 105",
    "address": "1076 30/4, Huyện Dầu Tiếng, Bình Dương",
    "latitude": 10.521495,
    "longitude": 107.477911
  },
  {
    "id": "106",
    "name": "Kho Trung tâm - 106",
    "address": "251 30/4, Thị xã Bến Cát, Bình Dương",
    "latitude": 12.35932,
    "longitude": 108.448889
  },
  {
    "id": "107",
    "name": "Kho Trung tâm - 107",
    "address": "1459/40 Trần Hưng Đạo, Huyện Đức Trọng, Lâm Đồng",
    "latitude": 10.466748,
    "longitude": 107.291964
  },
  {
    "id": "108",
    "name": "Kho Trung tâm - 108",
    "address": "928 Lê Duẩn, Huyện Nhơn Trạch, Đồng Nai",
    "latitude": 11.614265,
    "longitude": 106.017343
  },
  {
    "id": "109",
    "name": "Kho Trung tâm - 109",
    "address": "1354 Nguyễn Huệ, Huyện Hàm Thuận Bắc, Bình Thuận",
    "latitude": 12.185777,
    "longitude": 107.181407
  },
  {
    "id": "110",
    "name": "Kho Trung tâm - 110",
    "address": "1367/13 30/4, Huyện Xuyên Mộc, Bà Rịa - Vũng Tàu",
    "latitude": 10.377231,
    "longitude": 106.936961
  },
  {
    "id": "111",
    "name": "Kho Trung tâm - 111",
    "address": "57/40 Quang Trung, Huyện Củ Chi, TP. Hồ Chí Minh",
    "latitude": 12.305559,
    "longitude": 107.972699
  },
  {
    "id": "112",
    "name": "Kho Trung tâm - 112",
    "address": "1437 Phạm Văn Đồng, Huyện Cần Giuộc, Long An",
    "latitude": 10.995084,
    "longitude": 107.807448
  },
  {
    "id": "113",
    "name": "Kho Trung tâm - 113",
    "address": "1342 Võ Thị Sáu, Huyện Bình Chánh, TP. Hồ Chí Minh",
    "latitude": 10.228576,
    "longitude": 106.119676
  },
  {
    "id": "114",
    "name": "Kho Trung tâm - 114",
    "address": "1233 Lý Thường Kiệt, TP. Biên Hòa, Đồng Nai",
    "latitude": 12.127707,
    "longitude": 107.172378
  },
  {
    "id": "115",
    "name": "Kho Trung tâm - 115",
    "address": "512/29 Nguyễn Trãi, Huyện Gò Dầu, Tây Ninh",
    "latitude": 10.378828,
    "longitude": 107.557395
  },
  {
    "id": "116",
    "name": "Kho Trung tâm - 116",
    "address": "1316 Nguyễn Huệ, Quận 1, TP. Hồ Chí Minh",
    "latitude": 11.060347,
    "longitude": 107.670604
  },
  {
    "id": "117",
    "name": "Kho Trung tâm - 117",
    "address": "656 30/4, Huyện Gò Dầu, Tây Ninh",
    "latitude": 11.384179,
    "longitude": 107.237755
  },
  {
    "id": "118",
    "name": "Kho Trung tâm - 118",
    "address": "169 Lê Duẩn, Thị xã Trảng Bàng, Tây Ninh",
    "latitude": 10.44536,
    "longitude": 108.772847
  },
  {
    "id": "119",
    "name": "Kho Trung tâm - 119",
    "address": "773/49 Nguyễn Huệ, TP. Dĩ An, Bình Dương",
    "latitude": 10.413549,
    "longitude": 106.739752
  },
  {
    "id": "120",
    "name": "Kho Trung tâm - 120",
    "address": "123 Võ Thị Sáu, Thị xã Trảng Bàng, Tây Ninh",
    "latitude": 11.311783,
    "longitude": 105.851977
  },
  {
    "id": "121",
    "name": "Kho Trung tâm - 121",
    "address": "550/41 Võ Thị Sáu, Thị xã Bến Cát, Bình Dương",
    "latitude": 11.279586,
    "longitude": 107.470637
  },
  {
    "id": "122",
    "name": "Kho Trung tâm - 122",
    "address": "703/37 30/4, Thị xã Hòa Thành, Tây Ninh",
    "latitude": 11.411756,
    "longitude": 108.244553
  },
  {
    "id": "123",
    "name": "Kho Trung tâm - 123",
    "address": "1434 Quang Trung, TP. Long Khánh, Đồng Nai",
    "latitude": 10.956169,
    "longitude": 106.033757
  },
  {
    "id": "124",
    "name": "Kho Trung tâm - 124",
    "address": "1387 Trần Phú, Thị xã Hòa Thành, Tây Ninh",
    "latitude": 10.260636,
    "longitude": 108.259459
  },
  {
    "id": "125",
    "name": "Kho Trung tâm - 125",
    "address": "1110 Cách Mạng Tháng Tám, Quận 1, TP. Hồ Chí Minh",
    "latitude": 10.638156,
    "longitude": 108.293118
  },
  {
    "id": "126",
    "name": "Kho Trung tâm - 126",
    "address": "627/47 Hùng Vương, TP. Phan Thiết, Bình Thuận",
    "latitude": 11.281775,
    "longitude": 108.387949
  },
  {
    "id": "127",
    "name": "Kho Trung tâm - 127",
    "address": "309 Quang Trung, Thị xã Phú Mỹ, Bà Rịa - Vũng Tàu",
    "latitude": 12.094527,
    "longitude": 106.668989
  },
  {
    "id": "128",
    "name": "Kho Trung tâm - 128",
    "address": "25 Trần Phú, Huyện Chơn Thành, Bình Phước",
    "latitude": 12.212925,
    "longitude": 108.239745
  },
  {
    "id": "129",
    "name": "Kho Trung tâm - 129",
    "address": "205 Trần Phú, Thị xã La Gi, Bình Thuận",
    "latitude": 12.328216,
    "longitude": 105.729644
  },
  {
    "id": "130",
    "name": "Kho Trung tâm - 130",
    "address": "608 30/4, Huyện Nhơn Trạch, Đồng Nai",
    "latitude": 10.932956,
    "longitude": 107.366472
  },
  {
    "id": "131",
    "name": "Kho Trung tâm - 131",
    "address": "714 Võ Thị Sáu, TP. Đồng Xoài, Bình Phước",
    "latitude": 10.372512,
    "longitude": 108.417652
  },
  {
    "id": "132",
    "name": "Kho Trung tâm - 132",
    "address": "1011/14 Phan Bội Châu, Thị xã Trảng Bàng, Tây Ninh",
    "latitude": 11.955483,
    "longitude": 108.410521
  },
  {
    "id": "133",
    "name": "Kho Trung tâm - 133",
    "address": "559 Nguyễn Trãi, Thị xã Bến Cát, Bình Dương",
    "latitude": 10.480664,
    "longitude": 105.560863
  },
  {
    "id": "134",
    "name": "Kho Trung tâm - 134",
    "address": "395 Quang Trung, Thị xã Trảng Bàng, Tây Ninh",
    "latitude": 11.291907,
    "longitude": 107.523056
  },
  {
    "id": "135",
    "name": "Kho Trung tâm - 135",
    "address": "970/41 30/4, TP. Long Khánh, Đồng Nai",
    "latitude": 10.456923,
    "longitude": 106.162004
  },
  {
    "id": "136",
    "name": "Kho Trung tâm - 136",
    "address": "585 Hùng Vương, TP. Đồng Xoài, Bình Phước",
    "latitude": 11.40716,
    "longitude": 108.116323
  },
  {
    "id": "137",
    "name": "Kho Trung tâm - 137",
    "address": "1330 Trần Phú, Thị xã La Gi, Bình Thuận",
    "latitude": 10.887387,
    "longitude": 105.851048
  },
  {
    "id": "138",
    "name": "Kho Trung tâm - 138",
    "address": "1392 Trần Phú, Thị xã Hòa Thành, Tây Ninh",
    "latitude": 12.055484,
    "longitude": 106.570342
  },
  {
    "id": "139",
    "name": "Kho Trung tâm - 139",
    "address": "51/28 Lý Thường Kiệt, Thị xã Hòa Thành, Tây Ninh",
    "latitude": 12.218208,
    "longitude": 106.08454
  },
  {
    "id": "140",
    "name": "Kho Trung tâm - 140",
    "address": "340/30 Phan Bội Châu, Huyện Gò Dầu, Tây Ninh",
    "latitude": 10.66271,
    "longitude": 106.874953
  },
  {
    "id": "141",
    "name": "Kho Trung tâm - 141",
    "address": "656 Lê Lợi, Huyện Chơn Thành, Bình Phước",
    "latitude": 11.492935,
    "longitude": 108.235074
  },
  {
    "id": "142",
    "name": "Kho Trung tâm - 142",
    "address": "528/50 Trần Hưng Đạo, Huyện Chơn Thành, Bình Phước",
    "latitude": 10.740379,
    "longitude": 106.763899
  },
  {
    "id": "143",
    "name": "Kho Trung tâm - 143",
    "address": "1172/3 Điện Biên Phủ, TP. Tân An, Long An",
    "latitude": 11.148979,
    "longitude": 107.064878
  },
  {
    "id": "144",
    "name": "Kho Trung tâm - 144",
    "address": "202 Cách Mạng Tháng Tám, TP. Bà Rịa, Bà Rịa - Vũng Tàu",
    "latitude": 11.683798,
    "longitude": 107.601785
  },
  {
    "id": "145",
    "name": "Kho Trung tâm - 145",
    "address": "669 Hùng Vương, Thị xã Hòa Thành, Tây Ninh",
    "latitude": 11.835939,
    "longitude": 107.847531
  },
  {
    "id": "146",
    "name": "Kho Trung tâm - 146",
    "address": "1263 Điện Biên Phủ, TP. Thủ Đức, TP. Hồ Chí Minh",
    "latitude": 10.629564,
    "longitude": 106.257674
  },
  {
    "id": "147",
    "name": "Kho Trung tâm - 147",
    "address": "805 30/4, Huyện Củ Chi, TP. Hồ Chí Minh",
    "latitude": 11.66391,
    "longitude": 105.892986
  },
  {
    "id": "148",
    "name": "Kho Trung tâm - 148",
    "address": "325/28 Hùng Vương, TP. Thủ Dầu Một, Bình Dương",
    "latitude": 11.989995,
    "longitude": 108.830481
  },
  {
    "id": "149",
    "name": "Kho Trung tâm - 149",
    "address": "1099 Cách Mạng Tháng Tám, Huyện Đức Hòa, Long An",
    "latitude": 12.126045,
    "longitude": 106.432028
  },
  {
    "id": "150",
    "name": "Kho Trung tâm - 150",
    "address": "496 Trần Hưng Đạo, Quận Gò Vấp, TP. Hồ Chí Minh",
    "latitude": 10.656457,
    "longitude": 106.682314
  },
  {
    "id": "151",
    "name": "Kho Trung tâm - 151",
    "address": "546 Điện Biên Phủ, Huyện Đức Trọng, Lâm Đồng",
    "latitude": 10.98713,
    "longitude": 106.037402
  },
  {
    "id": "152",
    "name": "Kho Trung tâm - 152",
    "address": "149/11 Nguyễn Trãi, Thị xã Trảng Bàng, Tây Ninh",
    "latitude": 11.399963,
    "longitude": 107.560875
  },
  {
    "id": "153",
    "name": "Kho Trung tâm - 153",
    "address": "1023 Trần Phú, Thị xã Bến Cát, Bình Dương",
    "latitude": 11.475068,
    "longitude": 107.896925
  },
  {
    "id": "154",
    "name": "Kho Trung tâm - 154",
    "address": "1075/7 Cách Mạng Tháng Tám, Huyện Bến Lức, Long An",
    "latitude": 10.806003,
    "longitude": 105.716657
  },
  {
    "id": "155",
    "name": "Kho Trung tâm - 155",
    "address": "1307/48 Trần Hưng Đạo, Huyện Củ Chi, TP. Hồ Chí Minh",
    "latitude": 10.34717,
    "longitude": 106.907188
  },
  {
    "id": "156",
    "name": "Kho Trung tâm - 156",
    "address": "708 Phạm Văn Đồng, Thị xã La Gi, Bình Thuận",
    "latitude": 10.616404,
    "longitude": 107.626012
  },
  {
    "id": "157",
    "name": "Kho Trung tâm - 157",
    "address": "885/3 Trần Phú, TP. Tây Ninh, Tây Ninh",
    "latitude": 12.174685,
    "longitude": 108.751715
  },
  {
    "id": "158",
    "name": "Kho Trung tâm - 158",
    "address": "56 Trần Phú, TP. Long Khánh, Đồng Nai",
    "latitude": 11.336688,
    "longitude": 108.377816
  },
  {
    "id": "159",
    "name": "Kho Trung tâm - 159",
    "address": "901/6 Trần Phú, TP. Thuận An, Bình Dương",
    "latitude": 10.981457,
    "longitude": 106.904497
  },
  {
    "id": "160",
    "name": "Kho Trung tâm - 160",
    "address": "745 30/4, Thị xã Phước Long, Bình Phước",
    "latitude": 11.335473,
    "longitude": 107.454915
  },
  {
    "id": "161",
    "name": "Kho Trung tâm - 161",
    "address": "739/20 Quang Trung, Huyện Long Thành, Đồng Nai",
    "latitude": 10.903549,
    "longitude": 106.484803
  },
  {
    "id": "162",
    "name": "Kho Trung tâm - 162",
    "address": "1150 Võ Thị Sáu, TP. Bà Rịa, Bà Rịa - Vũng Tàu",
    "latitude": 12.314353,
    "longitude": 105.925628
  },
  {
    "id": "163",
    "name": "Kho Trung tâm - 163",
    "address": "148 Điện Biên Phủ, Thị xã Kiến Tường, Long An",
    "latitude": 10.760087,
    "longitude": 107.521094
  },
  {
    "id": "164",
    "name": "Kho Trung tâm - 164",
    "address": "1244/14 30/4, Huyện Đức Trọng, Lâm Đồng",
    "latitude": 12.355702,
    "longitude": 105.717118
  },
  {
    "id": "165",
    "name": "Kho Trung tâm - 165",
    "address": "1358 Lê Duẩn, Thị xã Bình Long, Bình Phước",
    "latitude": 10.212924,
    "longitude": 107.164997
  },
  {
    "id": "166",
    "name": "Kho Trung tâm - 166",
    "address": "1100/13 Cách Mạng Tháng Tám, Huyện Hàm Thuận Bắc, Bình Thuận",
    "latitude": 11.657697,
    "longitude": 105.6259
  },
  {
    "id": "167",
    "name": "Kho Trung tâm - 167",
    "address": "1057 Trần Phú, TP. Tây Ninh, Tây Ninh",
    "latitude": 10.275236,
    "longitude": 105.740787
  },
  {
    "id": "168",
    "name": "Kho Trung tâm - 168",
    "address": "31 Lê Lợi, Thị xã Bình Long, Bình Phước",
    "latitude": 11.40493,
    "longitude": 108.319565
  },
  {
    "id": "169",
    "name": "Kho Trung tâm - 169",
    "address": "52 Lê Duẩn, TP. Đồng Xoài, Bình Phước",
    "latitude": 11.754078,
    "longitude": 107.559295
  },
  {
    "id": "170",
    "name": "Kho Trung tâm - 170",
    "address": "90 30/4, Huyện Củ Chi, TP. Hồ Chí Minh",
    "latitude": 12.025789,
    "longitude": 108.192043
  },
  {
    "id": "171",
    "name": "Kho Trung tâm - 171",
    "address": "814 Điện Biên Phủ, Quận 3, TP. Hồ Chí Minh",
    "latitude": 10.404461,
    "longitude": 105.664123
  },
  {
    "id": "172",
    "name": "Kho Trung tâm - 172",
    "address": "999 Phạm Văn Đồng, TP. Thủ Dầu Một, Bình Dương",
    "latitude": 12.249458,
    "longitude": 108.72574
  },
  {
    "id": "173",
    "name": "Kho Trung tâm - 173",
    "address": "985 Hùng Vương, TP. Đà Lạt, Lâm Đồng",
    "latitude": 11.533942,
    "longitude": 106.011198
  },
  {
    "id": "174",
    "name": "Kho Trung tâm - 174",
    "address": "1344/30 Lê Duẩn, Huyện Dương Minh Châu, Tây Ninh",
    "latitude": 11.243072,
    "longitude": 106.26368
  },
  {
    "id": "175",
    "name": "Kho Trung tâm - 175",
    "address": "1431 30/4, Huyện Nhơn Trạch, Đồng Nai",
    "latitude": 10.271474,
    "longitude": 108.765526
  },
  {
    "id": "176",
    "name": "Kho Trung tâm - 176",
    "address": "1100/1 Cách Mạng Tháng Tám, Thị xã Hòa Thành, Tây Ninh",
    "latitude": 11.35637,
    "longitude": 107.873707
  },
  {
    "id": "177",
    "name": "Kho Trung tâm - 177",
    "address": "423 Lê Lợi, Thị xã Phú Mỹ, Bà Rịa - Vũng Tàu",
    "latitude": 10.468426,
    "longitude": 105.596332
  },
  {
    "id": "178",
    "name": "Kho Trung tâm - 178",
    "address": "1293/22 Hùng Vương, Huyện Đức Hòa, Long An",
    "latitude": 10.716991,
    "longitude": 107.079482
  },
  {
    "id": "179",
    "name": "Kho Trung tâm - 179",
    "address": "8 Trần Hưng Đạo, TP. Bà Rịa, Bà Rịa - Vũng Tàu",
    "latitude": 10.887391,
    "longitude": 108.111353
  },
  {
    "id": "180",
    "name": "Kho Trung tâm - 180",
    "address": "790 Nguyễn Trãi, Thị xã Phước Long, Bình Phước",
    "latitude": 11.466986,
    "longitude": 106.107881
  },
  {
    "id": "181",
    "name": "Kho Trung tâm - 181",
    "address": "1155 Lê Lợi, TP. Thuận An, Bình Dương",
    "latitude": 10.68248,
    "longitude": 108.196927
  },
  {
    "id": "182",
    "name": "Kho Trung tâm - 182",
    "address": "893 30/4, Huyện Dương Minh Châu, Tây Ninh",
    "latitude": 11.788786,
    "longitude": 107.782946
  },
  {
    "id": "183",
    "name": "Kho Trung tâm - 183",
    "address": "540/11 Lý Thường Kiệt, TP. Long Khánh, Đồng Nai",
    "latitude": 11.378579,
    "longitude": 108.550531
  },
  {
    "id": "184",
    "name": "Kho Trung tâm - 184",
    "address": "1140 30/4, TP. Thủ Đức, TP. Hồ Chí Minh",
    "latitude": 10.647387,
    "longitude": 106.349784
  },
  {
    "id": "185",
    "name": "Kho Trung tâm - 185",
    "address": "271/13 Lê Duẩn, Huyện Dầu Tiếng, Bình Dương",
    "latitude": 12.192439,
    "longitude": 107.006332
  },
  {
    "id": "186",
    "name": "Kho Trung tâm - 186",
    "address": "259 Võ Thị Sáu, TP. Tây Ninh, Tây Ninh",
    "latitude": 12.315954,
    "longitude": 107.863333
  },
  {
    "id": "187",
    "name": "Kho Trung tâm - 187",
    "address": "1365 Lê Duẩn, TP. Bà Rịa, Bà Rịa - Vũng Tàu",
    "latitude": 10.291011,
    "longitude": 106.877089
  },
  {
    "id": "188",
    "name": "Kho Trung tâm - 188",
    "address": "1491/23 Lê Lợi, Huyện Tuy Phong, Bình Thuận",
    "latitude": 12.019485,
    "longitude": 107.100349
  },
  {
    "id": "189",
    "name": "Kho Trung tâm - 189",
    "address": "1123/24 Lê Duẩn, Thị xã Phước Long, Bình Phước",
    "latitude": 11.256321,
    "longitude": 107.90898
  },
  {
    "id": "190",
    "name": "Kho Trung tâm - 190",
    "address": "381/24 Cách Mạng Tháng Tám, Huyện Bù Đăng, Bình Phước",
    "latitude": 10.25926,
    "longitude": 106.775153
  },
  {
    "id": "191",
    "name": "Kho Trung tâm - 191",
    "address": "502 Trần Phú, Huyện Xuyên Mộc, Bà Rịa - Vũng Tàu",
    "latitude": 11.848972,
    "longitude": 107.573285
  },
  {
    "id": "192",
    "name": "Kho Trung tâm - 192",
    "address": "1135 Nguyễn Trãi, Thị xã La Gi, Bình Thuận",
    "latitude": 12.298959,
    "longitude": 107.069871
  },
  {
    "id": "193",
    "name": "Kho Trung tâm - 193",
    "address": "1372/41 Nguyễn Trãi, Huyện Lâm Hà, Lâm Đồng",
    "latitude": 11.316837,
    "longitude": 108.720384
  },
  {
    "id": "194",
    "name": "Kho Trung tâm - 194",
    "address": "1128 Phạm Văn Đồng, Huyện Đức Trọng, Lâm Đồng",
    "latitude": 10.92371,
    "longitude": 105.841807
  },
  {
    "id": "195",
    "name": "Kho Trung tâm - 195",
    "address": "1486 Lê Duẩn, TP. Tân An, Long An",
    "latitude": 12.269413,
    "longitude": 106.685621
  },
  {
    "id": "196",
    "name": "Kho Trung tâm - 196",
    "address": "1111/20 Lê Lợi, TP. Biên Hòa, Đồng Nai",
    "latitude": 10.887948,
    "longitude": 107.828049
  },
  {
    "id": "197",
    "name": "Kho Trung tâm - 197",
    "address": "1263 Lê Lợi, Quận Gò Vấp, TP. Hồ Chí Minh",
    "latitude": 11.722926,
    "longitude": 107.869763
  },
  {
    "id": "198",
    "name": "Kho Trung tâm - 198",
    "address": "603 Nguyễn Trãi, Huyện Chơn Thành, Bình Phước",
    "latitude": 12.367339,
    "longitude": 106.031341
  },
  {
    "id": "199",
    "name": "Kho Trung tâm - 199",
    "address": "903 Lê Duẩn, Huyện Cần Giuộc, Long An",
    "latitude": 10.565246,
    "longitude": 106.132558
  },
  {
    "id": "200",
    "name": "Kho Trung tâm - 200",
    "address": "1232 Lê Duẩn, Huyện Cần Giuộc, Long An",
    "latitude": 11.520907,
    "longitude": 107.565467
  },
  {
    "id": "201",
    "name": "Kho Trung tâm - 201",
    "address": "1106 Phạm Văn Đồng, Huyện Đức Hòa, Long An",
    "latitude": 10.365315,
    "longitude": 105.598953
  },
  {
    "id": "202",
    "name": "Kho Trung tâm - 202",
    "address": "768 Lý Thường Kiệt, Huyện Di Linh, Lâm Đồng",
    "latitude": 12.184168,
    "longitude": 108.611606
  },
  {
    "id": "203",
    "name": "Kho Trung tâm - 203",
    "address": "325 Lý Thường Kiệt, Huyện Long Thành, Đồng Nai",
    "latitude": 12.31613,
    "longitude": 106.293465
  },
  {
    "id": "204",
    "name": "Kho Trung tâm - 204",
    "address": "1159 Quang Trung, Huyện Gò Dầu, Tây Ninh",
    "latitude": 11.249057,
    "longitude": 106.186359
  },
  {
    "id": "205",
    "name": "Kho Trung tâm - 205",
    "address": "11/29 Lê Duẩn, TP. Thuận An, Bình Dương",
    "latitude": 11.389395,
    "longitude": 106.786316
  },
  {
    "id": "206",
    "name": "Kho Trung tâm - 206",
    "address": "244 Võ Thị Sáu, Quận 3, TP. Hồ Chí Minh",
    "latitude": 12.007504,
    "longitude": 106.508276
  },
  {
    "id": "207",
    "name": "Kho Trung tâm - 207",
    "address": "811 Võ Thị Sáu, Huyện Cần Giuộc, Long An",
    "latitude": 10.554787,
    "longitude": 106.773652
  },
  {
    "id": "208",
    "name": "Kho Trung tâm - 208",
    "address": "616 Lê Lợi, Thị xã Trảng Bàng, Tây Ninh",
    "latitude": 10.540951,
    "longitude": 107.938537
  },
  {
    "id": "209",
    "name": "Kho Trung tâm - 209",
    "address": "322/9 Phan Bội Châu, TP. Tây Ninh, Tây Ninh",
    "latitude": 11.193143,
    "longitude": 107.844152
  },
  {
    "id": "210",
    "name": "Kho Trung tâm - 210",
    "address": "868/36 Quang Trung, TP. Biên Hòa, Đồng Nai",
    "latitude": 11.219822,
    "longitude": 108.079176
  },
  {
    "id": "211",
    "name": "Kho Trung tâm - 211",
    "address": "1057/17 Lê Lợi, Huyện Trảng Bom, Đồng Nai",
    "latitude": 12.264271,
    "longitude": 107.488583
  },
  {
    "id": "212",
    "name": "Kho Trung tâm - 212",
    "address": "1182 Phan Bội Châu, Thị xã Phú Mỹ, Bà Rịa - Vũng Tàu",
    "latitude": 10.868945,
    "longitude": 107.752987
  },
  {
    "id": "213",
    "name": "Kho Trung tâm - 213",
    "address": "718 30/4, TP. Thuận An, Bình Dương",
    "latitude": 12.215759,
    "longitude": 105.55691
  },
  {
    "id": "214",
    "name": "Kho Trung tâm - 214",
    "address": "147 Điện Biên Phủ, Huyện Bù Đăng, Bình Phước",
    "latitude": 11.72226,
    "longitude": 108.278662
  },
  {
    "id": "215",
    "name": "Kho Trung tâm - 215",
    "address": "1358/1 Trần Hưng Đạo, TP. Tây Ninh, Tây Ninh",
    "latitude": 10.791696,
    "longitude": 108.490474
  },
  {
    "id": "216",
    "name": "Kho Trung tâm - 216",
    "address": "484/31 Điện Biên Phủ, TP. Thủ Đức, TP. Hồ Chí Minh",
    "latitude": 10.73439,
    "longitude": 107.181441
  },
  {
    "id": "217",
    "name": "Kho Trung tâm - 217",
    "address": "953/2 Trần Phú, Huyện Chơn Thành, Bình Phước",
    "latitude": 11.709513,
    "longitude": 108.592312
  },
  {
    "id": "218",
    "name": "Kho Trung tâm - 218",
    "address": "1330 Phan Bội Châu, TP. Bà Rịa, Bà Rịa - Vũng Tàu",
    "latitude": 12.095552,
    "longitude": 105.626214
  },
  {
    "id": "219",
    "name": "Kho Trung tâm - 219",
    "address": "484 Phan Bội Châu, Huyện Châu Đức, Bà Rịa - Vũng Tàu",
    "latitude": 10.491079,
    "longitude": 106.868568
  },
  {
    "id": "220",
    "name": "Kho Trung tâm - 220",
    "address": "1169 Nguyễn Huệ, Huyện Gò Dầu, Tây Ninh",
    "latitude": 10.519,
    "longitude": 107.716035
  },
  {
    "id": "221",
    "name": "Kho Trung tâm - 221",
    "address": "32 Điện Biên Phủ, Huyện Dầu Tiếng, Bình Dương",
    "latitude": 11.161409,
    "longitude": 108.029339
  },
  {
    "id": "222",
    "name": "Kho Trung tâm - 222",
    "address": "97 Lý Thường Kiệt, Huyện Gò Dầu, Tây Ninh",
    "latitude": 10.434984,
    "longitude": 105.940613
  },
  {
    "id": "223",
    "name": "Kho Trung tâm - 223",
    "address": "465 Nguyễn Huệ, Huyện Chơn Thành, Bình Phước",
    "latitude": 10.637038,
    "longitude": 105.611394
  },
  {
    "id": "224",
    "name": "Kho Trung tâm - 224",
    "address": "738 30/4, Huyện Dầu Tiếng, Bình Dương",
    "latitude": 10.689518,
    "longitude": 107.082879
  },
  {
    "id": "225",
    "name": "Kho Trung tâm - 225",
    "address": "1308 30/4, TP. Thủ Dầu Một, Bình Dương",
    "latitude": 12.129429,
    "longitude": 105.639111
  },
  {
    "id": "226",
    "name": "Kho Trung tâm - 226",
    "address": "876 Phạm Văn Đồng, Thị xã Trảng Bàng, Tây Ninh",
    "latitude": 11.395206,
    "longitude": 106.318611
  },
  {
    "id": "227",
    "name": "Kho Trung tâm - 227",
    "address": "941 Nguyễn Huệ, Huyện Dương Minh Châu, Tây Ninh",
    "latitude": 10.728158,
    "longitude": 106.556968
  },
  {
    "id": "228",
    "name": "Kho Trung tâm - 228",
    "address": "223 Cách Mạng Tháng Tám, TP. Tây Ninh, Tây Ninh",
    "latitude": 12.33386,
    "longitude": 106.826042
  },
  {
    "id": "229",
    "name": "Kho Trung tâm - 229",
    "address": "532 Quang Trung, Huyện Cần Giuộc, Long An",
    "latitude": 11.287639,
    "longitude": 108.473274
  },
  {
    "id": "230",
    "name": "Kho Trung tâm - 230",
    "address": "648 Phạm Văn Đồng, Huyện Gò Dầu, Tây Ninh",
    "latitude": 10.508491,
    "longitude": 107.76307
  },
  {
    "id": "231",
    "name": "Kho Trung tâm - 231",
    "address": "27 Lê Duẩn, TP. Thuận An, Bình Dương",
    "latitude": 11.45887,
    "longitude": 107.881091
  },
  {
    "id": "232",
    "name": "Kho Trung tâm - 232",
    "address": "284 Trần Hưng Đạo, TP. Tây Ninh, Tây Ninh",
    "latitude": 12.24236,
    "longitude": 105.584608
  },
  {
    "id": "233",
    "name": "Kho Trung tâm - 233",
    "address": "970 Lý Thường Kiệt, TP. Thuận An, Bình Dương",
    "latitude": 11.312068,
    "longitude": 105.837406
  },
  {
    "id": "234",
    "name": "Kho Trung tâm - 234",
    "address": "437 Trần Phú, Huyện Đức Trọng, Lâm Đồng",
    "latitude": 11.195955,
    "longitude": 107.654775
  },
  {
    "id": "235",
    "name": "Kho Trung tâm - 235",
    "address": "588 Phan Bội Châu, Thị xã Hòa Thành, Tây Ninh",
    "latitude": 10.956742,
    "longitude": 105.910395
  },
  {
    "id": "236",
    "name": "Kho Trung tâm - 236",
    "address": "1450 Hùng Vương, Huyện Lâm Hà, Lâm Đồng",
    "latitude": 11.456661,
    "longitude": 108.39841
  },
  {
    "id": "237",
    "name": "Kho Trung tâm - 237",
    "address": "478 Nguyễn Trãi, Huyện Dầu Tiếng, Bình Dương",
    "latitude": 10.928899,
    "longitude": 106.592725
  },
  {
    "id": "238",
    "name": "Kho Trung tâm - 238",
    "address": "1192 Điện Biên Phủ, Huyện Hàm Thuận Bắc, Bình Thuận",
    "latitude": 10.814411,
    "longitude": 108.797622
  },
  {
    "id": "239",
    "name": "Kho Trung tâm - 239",
    "address": "954 Quang Trung, TP. Thủ Dầu Một, Bình Dương",
    "latitude": 10.750451,
    "longitude": 108.63231
  },
  {
    "id": "240",
    "name": "Kho Trung tâm - 240",
    "address": "1047 Quang Trung, Thị xã Kiến Tường, Long An",
    "latitude": 11.836576,
    "longitude": 108.417208
  },
  {
    "id": "241",
    "name": "Kho Trung tâm - 241",
    "address": "27 Nguyễn Trãi, Huyện Củ Chi, TP. Hồ Chí Minh",
    "latitude": 11.151154,
    "longitude": 108.38487
  },
  {
    "id": "242",
    "name": "Kho Trung tâm - 242",
    "address": "289 Cách Mạng Tháng Tám, Quận 3, TP. Hồ Chí Minh",
    "latitude": 10.836585,
    "longitude": 108.291472
  },
  {
    "id": "243",
    "name": "Kho Trung tâm - 243",
    "address": "1384/28 Quang Trung, Huyện Tuy Phong, Bình Thuận",
    "latitude": 10.934591,
    "longitude": 108.53791
  },
  {
    "id": "244",
    "name": "Kho Trung tâm - 244",
    "address": "610/25 Nguyễn Huệ, Quận 3, TP. Hồ Chí Minh",
    "latitude": 10.586062,
    "longitude": 106.643772
  },
  {
    "id": "245",
    "name": "Kho Trung tâm - 245",
    "address": "1312 Lê Duẩn, TP. Đà Lạt, Lâm Đồng",
    "latitude": 10.69091,
    "longitude": 108.143869
  },
  {
    "id": "246",
    "name": "Kho Trung tâm - 246",
    "address": "322/12 Quang Trung, TP. Vũng Tàu, Bà Rịa - Vũng Tàu",
    "latitude": 11.613726,
    "longitude": 108.303917
  },
  {
    "id": "247",
    "name": "Kho Trung tâm - 247",
    "address": "1084/37 Trần Phú, Huyện Đức Hòa, Long An",
    "latitude": 10.705709,
    "longitude": 106.1202
  },
  {
    "id": "248",
    "name": "Kho Trung tâm - 248",
    "address": "659/37 Cách Mạng Tháng Tám, Thị xã Phú Mỹ, Bà Rịa - Vũng Tàu",
    "latitude": 10.57412,
    "longitude": 107.993901
  },
  {
    "id": "249",
    "name": "Kho Trung tâm - 249",
    "address": "460 Trần Hưng Đạo, Huyện Cần Giuộc, Long An",
    "latitude": 10.31595,
    "longitude": 108.583213
  },
  {
    "id": "250",
    "name": "Kho Trung tâm - 250",
    "address": "635 Nguyễn Huệ, Thị xã Trảng Bàng, Tây Ninh",
    "latitude": 12.033663,
    "longitude": 108.549717
  }
]